{
"type": "FeatureCollection",
"name": "nairobi_healthcare_facilities",
"crs": { "type": "name", "properties": { "name": "urn:ogc:def:crs:OGC:1.3:CRS84" } },
"features": [
{ "type": "Feature", "properties": { "name": "St Elizabeth Medical Clinic", "amenity_type": "clinic", "osm-type": "node", "latitude": -1.3109131, "longitude": 36.7900408 }, "geometry": { "type": "Point", "coordinates": [ 36.7900408, -1.3109131 ] } },
{ "type": "Feature", "properties": { "name": "Royal Clinic", "amenity_type": "clinic", "osm-type": "node", "latitude": -1.3158943, "longitude": 36.7938883 }, "geometry": { "type": "Point", "coordinates": [ 36.7938883, -1.3158943 ] } },
{ "type": "Feature", "properties": { "name": "Shachif Health Unit", "amenity_type": "clinic", "osm-type": "node", "latitude": -1.3158759, "longitude": 36.7952358 }, "geometry": { "type": "Point", "coordinates": [ 36.7952358, -1.3158759 ] } },
{ "type": "Feature", "properties": { "name": "Senye Clinic", "amenity_type": "clinic", "osm-type": "node", "latitude": -1.3144036, "longitude": 36.7761783 }, "geometry": { "type": "Point", "coordinates": [ 36.7761783, -1.3144036 ] } },
{ "type": "Feature", "properties": { "name": "Frepals Nursing Home", "amenity_type": "clinic", "osm-type": "node", "latitude": -1.3117443, "longitude": 36.7929726 }, "geometry": { "type": "Point", "coordinates": [ 36.7929726, -1.3117443 ] } },
{ "type": "Feature", "properties": { "name": "St Mac's Clinic", "amenity_type": "clinic", "osm-type": "node", "latitude": -1.3119267, "longitude": 36.7977924 }, "geometry": { "type": "Point", "coordinates": [ 36.7977924, -1.3119267 ] } },
{ "type": "Feature", "properties": { "name": "Silanga Dispensary", "amenity_type": "clinic", "osm-type": "node", "latitude": -1.3173678, "longitude": 36.796057 }, "geometry": { "type": "Point", "coordinates": [ 36.796057, -1.3173678 ] } },
{ "type": "Feature", "properties": { "name": "Senye Medical Clinic and Laboratory", "amenity_type": "clinic", "osm-type": "node", "latitude": -1.3129567, "longitude": 36.7754911 }, "geometry": { "type": "Point", "coordinates": [ 36.7754911, -1.3129567 ] } },
{ "type": "Feature", "properties": { "name": "St Knight Medical Clinic", "amenity_type": "clinic", "osm-type": "node", "latitude": -1.3145607, "longitude": 36.7828489 }, "geometry": { "type": "Point", "coordinates": [ 36.7828489, -1.3145607 ] } },
{ "type": "Feature", "properties": { "name": "Kishep Medical Centre and Dental Clinic", "amenity_type": "clinic", "osm-type": "node", "latitude": -1.3128435, "longitude": 36.7959341 }, "geometry": { "type": "Point", "coordinates": [ 36.7959341, -1.3128435 ] } },
{ "type": "Feature", "properties": { "name": "Mary Medical clinic", "amenity_type": "clinic", "osm-type": "node", "latitude": -1.3133844, "longitude": 36.7964865 }, "geometry": { "type": "Point", "coordinates": [ 36.7964865, -1.3133844 ] } },
{ "type": "Feature", "properties": { "name": "Okoa Medical Clinic", "amenity_type": "clinic", "osm-type": "node", "latitude": -1.3168583, "longitude": 36.7958725 }, "geometry": { "type": "Point", "coordinates": [ 36.7958725, -1.3168583 ] } },
{ "type": "Feature", "properties": { "name": "St Emmaculate James", "amenity_type": "clinic", "osm-type": "node", "latitude": -1.3172686, "longitude": 36.7978807 }, "geometry": { "type": "Point", "coordinates": [ 36.7978807, -1.3172686 ] } },
{ "type": "Feature", "properties": { "name": "Universe Medical Clinic", "amenity_type": "clinic", "osm-type": "node", "latitude": -1.3171214, "longitude": 36.7946621 }, "geometry": { "type": "Point", "coordinates": [ 36.7946621, -1.3171214 ] } },
{ "type": "Feature", "properties": { "name": "Gemkam Medical Clinic", "amenity_type": "clinic", "osm-type": "node", "latitude": -1.3170903, "longitude": 36.7967088 }, "geometry": { "type": "Point", "coordinates": [ 36.7967088, -1.3170903 ] } },
{ "type": "Feature", "properties": { "name": "St Knight Medical Clinic", "amenity_type": "clinic", "osm-type": "node", "latitude": -1.317186, "longitude": 36.7975113 }, "geometry": { "type": "Point", "coordinates": [ 36.7975113, -1.317186 ] } },
{ "type": "Feature", "properties": { "name": "Kisembo Medical Clinic", "amenity_type": "clinic", "osm-type": "node", "latitude": -1.3132558, "longitude": 36.7899997 }, "geometry": { "type": "Point", "coordinates": [ 36.7899997, -1.3132558 ] } },
{ "type": "Feature", "properties": { "name": "Tumaini Medical Clinic", "amenity_type": "clinic", "osm-type": "node", "latitude": -1.3087557, "longitude": 36.7731928 }, "geometry": { "type": "Point", "coordinates": [ 36.7731928, -1.3087557 ] } },
{ "type": "Feature", "properties": { "name": "Uzima Chemist", "amenity_type": "clinic", "osm-type": "node", "latitude": -1.3150604, "longitude": 36.782461 }, "geometry": { "type": "Point", "coordinates": [ 36.782461, -1.3150604 ] } },
{ "type": "Feature", "properties": { "name": "Lea Toto Community (Mukuru Reuben)", "amenity_type": "clinic", "osm-type": "node", "latitude": -1.3159102, "longitude": 36.8694824 }, "geometry": { "type": "Point", "coordinates": [ 36.8694824, -1.3159102 ] } },
{ "type": "Feature", "properties": { "name": "Nakhayo Medical Clinic", "amenity_type": "clinic", "osm-type": "node", "latitude": -1.3114323, "longitude": 36.7879942 }, "geometry": { "type": "Point", "coordinates": [ 36.7879942, -1.3114323 ] } },
{ "type": "Feature", "properties": { "name": "Unnamed Facility", "amenity_type": "clinic", "osm-type": "node", "latitude": -1.3111864, "longitude": 36.8424343 }, "geometry": { "type": "Point", "coordinates": [ 36.8424343, -1.3111864 ] } },
{ "type": "Feature", "properties": { "name": "Huruma Lions Health Center", "amenity_type": "clinic", "osm-type": "node", "latitude": -1.2609517, "longitude": 36.8668456 }, "geometry": { "type": "Point", "coordinates": [ 36.8668456, -1.2609517 ] } },
{ "type": "Feature", "properties": { "name": "MSF", "amenity_type": "clinic", "osm-type": "node", "latitude": -1.2660199, "longitude": 36.8533965 }, "geometry": { "type": "Point", "coordinates": [ 36.8533965, -1.2660199 ] } },
{ "type": "Feature", "properties": { "name": "Ebenezer Clinic and Chemist", "amenity_type": "clinic", "osm-type": "node", "latitude": -1.248706, "longitude": 36.8831751 }, "geometry": { "type": "Point", "coordinates": [ 36.8831751, -1.248706 ] } },
{ "type": "Feature", "properties": { "name": "Grace Chemist and Clinic", "amenity_type": "clinic", "osm-type": "node", "latitude": -1.2489842, "longitude": 36.883296 }, "geometry": { "type": "Point", "coordinates": [ 36.883296, -1.2489842 ] } },
{ "type": "Feature", "properties": { "name": "Hope Medical Clinic", "amenity_type": "clinic", "osm-type": "node", "latitude": -1.2478573, "longitude": 36.8856522 }, "geometry": { "type": "Point", "coordinates": [ 36.8856522, -1.2478573 ] } },
{ "type": "Feature", "properties": { "name": "Joy Medical Clinic", "amenity_type": "clinic", "osm-type": "node", "latitude": -1.2478133, "longitude": 36.8832957 }, "geometry": { "type": "Point", "coordinates": [ 36.8832957, -1.2478133 ] } },
{ "type": "Feature", "properties": { "name": "Redeemed Gospel Church Clinic", "amenity_type": "clinic", "osm-type": "node", "latitude": -1.2468798, "longitude": 36.8878506 }, "geometry": { "type": "Point", "coordinates": [ 36.8878506, -1.2468798 ] } },
{ "type": "Feature", "properties": { "name": "St. Florence Medical Clinic", "amenity_type": "clinic", "osm-type": "node", "latitude": -1.2485588, "longitude": 36.8849476 }, "geometry": { "type": "Point", "coordinates": [ 36.8849476, -1.2485588 ] } },
{ "type": "Feature", "properties": { "name": "Lusky summer tumaini clinic", "amenity_type": "clinic", "osm-type": "node", "latitude": -1.2412836, "longitude": 36.8975021 }, "geometry": { "type": "Point", "coordinates": [ 36.8975021, -1.2412836 ] } },
{ "type": "Feature", "properties": { "name": "Keza Health Care Services", "amenity_type": "clinic", "osm-type": "node", "latitude": -1.2468717, "longitude": 36.883334 }, "geometry": { "type": "Point", "coordinates": [ 36.883334, -1.2468717 ] } },
{ "type": "Feature", "properties": { "name": "Kianda Medical Center", "amenity_type": "clinic", "osm-type": "node", "latitude": -1.3110416, "longitude": 36.7759698 }, "geometry": { "type": "Point", "coordinates": [ 36.7759698, -1.3110416 ] } },
{ "type": "Feature", "properties": { "name": "Kahawa Health Centre", "amenity_type": "clinic", "osm-type": "node", "latitude": -1.1901171, "longitude": 36.9135547 }, "geometry": { "type": "Point", "coordinates": [ 36.9135547, -1.1901171 ] } },
{ "type": "Feature", "properties": { "name": "The Mater Hospital - Satellite Clinic(TRM)", "amenity_type": "clinic", "osm-type": "node", "latitude": -1.2198096, "longitude": 36.8889635 }, "geometry": { "type": "Point", "coordinates": [ 36.8889635, -1.2198096 ] } },
{ "type": "Feature", "properties": { "name": "Imara Clinic", "amenity_type": "clinic", "osm-type": "node", "latitude": -1.30871, "longitude": 36.836291 }, "geometry": { "type": "Point", "coordinates": [ 36.836291, -1.30871 ] } },
{ "type": "Feature", "properties": { "name": "Kwa Kioko Clinic", "amenity_type": "clinic", "osm-type": "node", "latitude": -1.309181, "longitude": 36.8370769 }, "geometry": { "type": "Point", "coordinates": [ 36.8370769, -1.309181 ] } },
{ "type": "Feature", "properties": { "name": "Mukami's Clinic", "amenity_type": "clinic", "osm-type": "node", "latitude": -1.3091279, "longitude": 36.8369739 }, "geometry": { "type": "Point", "coordinates": [ 36.8369739, -1.3091279 ] } },
{ "type": "Feature", "properties": { "name": "access afya clinic", "amenity_type": "clinic", "osm-type": "node", "latitude": -1.3109931, "longitude": 36.842793 }, "geometry": { "type": "Point", "coordinates": [ 36.842793, -1.3109931 ] } },
{ "type": "Feature", "properties": { "name": "clinic", "amenity_type": "clinic", "osm-type": "node", "latitude": -1.3111881, "longitude": 36.8423509 }, "geometry": { "type": "Point", "coordinates": [ 36.8423509, -1.3111881 ] } },
{ "type": "Feature", "properties": { "name": "clinic", "amenity_type": "clinic", "osm-type": "node", "latitude": -1.311235, "longitude": 36.842276 }, "geometry": { "type": "Point", "coordinates": [ 36.842276, -1.311235 ] } },
{ "type": "Feature", "properties": { "name": "Imara Clinic", "amenity_type": "clinic", "osm-type": "node", "latitude": -1.3124681, "longitude": 36.8435459 }, "geometry": { "type": "Point", "coordinates": [ 36.8435459, -1.3124681 ] } },
{ "type": "Feature", "properties": { "name": "fema medical clinic", "amenity_type": "clinic", "osm-type": "node", "latitude": -1.3080626, "longitude": 36.8411708 }, "geometry": { "type": "Point", "coordinates": [ 36.8411708, -1.3080626 ] } },
{ "type": "Feature", "properties": { "name": "Grace medical clinic", "amenity_type": "clinic", "osm-type": "node", "latitude": -1.3139039, "longitude": 36.8475543 }, "geometry": { "type": "Point", "coordinates": [ 36.8475543, -1.3139039 ] } },
{ "type": "Feature", "properties": { "name": "Clinix", "amenity_type": "clinic", "osm-type": "node", "latitude": -1.4381146, "longitude": 37.0474728 }, "geometry": { "type": "Point", "coordinates": [ 37.0474728, -1.4381146 ] } },
{ "type": "Feature", "properties": { "name": "Rays of Hope Medical Clinic", "amenity_type": "clinic", "osm-type": "node", "latitude": -1.2654296, "longitude": 36.8513356 }, "geometry": { "type": "Point", "coordinates": [ 36.8513356, -1.2654296 ] } },
{ "type": "Feature", "properties": { "name": "Stahi Medical Clinic", "amenity_type": "clinic", "osm-type": "node", "latitude": -1.2644973, "longitude": 36.8520265 }, "geometry": { "type": "Point", "coordinates": [ 36.8520265, -1.2644973 ] } },
{ "type": "Feature", "properties": { "name": "Uzima2 clinic", "amenity_type": "clinic", "osm-type": "node", "latitude": -1.2641912, "longitude": 36.8592713 }, "geometry": { "type": "Point", "coordinates": [ 36.8592713, -1.2641912 ] } },
{ "type": "Feature", "properties": { "name": "Seme Medical Clinic", "amenity_type": "clinic", "osm-type": "node", "latitude": -1.2631862, "longitude": 36.8494006 }, "geometry": { "type": "Point", "coordinates": [ 36.8494006, -1.2631862 ] } },
{ "type": "Feature", "properties": { "name": "Dan's medical center", "amenity_type": "clinic", "osm-type": "node", "latitude": -1.262622, "longitude": 36.8553455 }, "geometry": { "type": "Point", "coordinates": [ 36.8553455, -1.262622 ] } },
{ "type": "Feature", "properties": { "name": "AIC Zion Medical Clinic", "amenity_type": "clinic", "osm-type": "node", "latitude": -1.262991, "longitude": 36.8623015 }, "geometry": { "type": "Point", "coordinates": [ 36.8623015, -1.262991 ] } },
{ "type": "Feature", "properties": { "name": "Villa Medical Centre", "amenity_type": "clinic", "osm-type": "node", "latitude": -1.2628715, "longitude": 36.8635425 }, "geometry": { "type": "Point", "coordinates": [ 36.8635425, -1.2628715 ] } },
{ "type": "Feature", "properties": { "name": "Glorious Chemist and Clinic", "amenity_type": "clinic", "osm-type": "node", "latitude": -1.2619302, "longitude": 36.861276 }, "geometry": { "type": "Point", "coordinates": [ 36.861276, -1.2619302 ] } },
{ "type": "Feature", "properties": { "name": "Pona Medical Centre", "amenity_type": "clinic", "osm-type": "node", "latitude": -1.2620157, "longitude": 36.8605312 }, "geometry": { "type": "Point", "coordinates": [ 36.8605312, -1.2620157 ] } },
{ "type": "Feature", "properties": { "name": "Plainsview Dispensary", "amenity_type": "clinic", "osm-type": "node", "latitude": -1.3169513, "longitude": 36.8426153 }, "geometry": { "type": "Point", "coordinates": [ 36.8426153, -1.3169513 ] } },
{ "type": "Feature", "properties": { "name": "AAR Williamsom Health Centre", "amenity_type": "clinic", "osm-type": "node", "latitude": -1.2946543, "longitude": 36.809344 }, "geometry": { "type": "Point", "coordinates": [ 36.809344, -1.2946543 ] } },
{ "type": "Feature", "properties": { "name": "Beyond Zero Community Clinic", "amenity_type": "clinic", "osm-type": "node", "latitude": -1.3112204, "longitude": 36.7821951 }, "geometry": { "type": "Point", "coordinates": [ 36.7821951, -1.3112204 ] } },
{ "type": "Feature", "properties": { "name": "Kianda 42 Dispensary Beyond Zero", "amenity_type": "clinic", "osm-type": "node", "latitude": -1.307666, "longitude": 36.7719374 }, "geometry": { "type": "Point", "coordinates": [ 36.7719374, -1.307666 ] } },
{ "type": "Feature", "properties": { "name": "Clinic 40 Jesus Medical Clinic", "amenity_type": "clinic", "osm-type": "node", "latitude": -1.3076369, "longitude": 36.7719083 }, "geometry": { "type": "Point", "coordinates": [ 36.7719083, -1.3076369 ] } },
{ "type": "Feature", "properties": { "name": "Mt. Kenya Chemist and Clinic", "amenity_type": "clinic", "osm-type": "node", "latitude": -1.313316, "longitude": 36.7900521 }, "geometry": { "type": "Point", "coordinates": [ 36.7900521, -1.313316 ] } },
{ "type": "Feature", "properties": { "name": "Chandaria Clinic Shofco", "amenity_type": "clinic", "osm-type": "node", "latitude": -1.311116, "longitude": 36.773577 }, "geometry": { "type": "Point", "coordinates": [ 36.773577, -1.311116 ] } },
{ "type": "Feature", "properties": { "name": "Rosade Medical Clinic", "amenity_type": "clinic", "osm-type": "node", "latitude": -1.3112114, "longitude": 36.7758653 }, "geometry": { "type": "Point", "coordinates": [ 36.7758653, -1.3112114 ] } },
{ "type": "Feature", "properties": { "name": "Bliss Medical HealthCare", "amenity_type": "clinic", "osm-type": "node", "latitude": -1.31047, "longitude": 36.7739201 }, "geometry": { "type": "Point", "coordinates": [ 36.7739201, -1.31047 ] } },
{ "type": "Feature", "properties": { "name": "Kinani Medical & Dental Clinic", "amenity_type": "clinic", "osm-type": "node", "latitude": -1.3104057, "longitude": 36.773968 }, "geometry": { "type": "Point", "coordinates": [ 36.773968, -1.3104057 ] } },
{ "type": "Feature", "properties": { "name": "Kibera LVCT Health Dream Centre", "amenity_type": "clinic", "osm-type": "node", "latitude": -1.3061438, "longitude": 36.787826 }, "geometry": { "type": "Point", "coordinates": [ 36.787826, -1.3061438 ] } },
{ "type": "Feature", "properties": { "name": "Beyond Zero Community Clinic, Raila", "amenity_type": "clinic", "osm-type": "node", "latitude": -1.3174781, "longitude": 36.7766047 }, "geometry": { "type": "Point", "coordinates": [ 36.7766047, -1.3174781 ] } },
{ "type": "Feature", "properties": { "name": "Beyond Zero Community Clinic", "amenity_type": "clinic", "osm-type": "node", "latitude": -1.3163909, "longitude": 36.7759732 }, "geometry": { "type": "Point", "coordinates": [ 36.7759732, -1.3163909 ] } },
{ "type": "Feature", "properties": { "name": "FHOK- Family Care Medical Centre", "amenity_type": "clinic", "osm-type": "node", "latitude": -1.3120923, "longitude": 36.7939863 }, "geometry": { "type": "Point", "coordinates": [ 36.7939863, -1.3120923 ] } },
{ "type": "Feature", "properties": { "name": "Vital Solution Elevation Clinic", "amenity_type": "clinic", "osm-type": "node", "latitude": -1.3132486, "longitude": 36.7952721 }, "geometry": { "type": "Point", "coordinates": [ 36.7952721, -1.3132486 ] } },
{ "type": "Feature", "properties": { "name": "Beyond Zero CBO Soweto", "amenity_type": "clinic", "osm-type": "node", "latitude": -1.3176322, "longitude": 36.79944 }, "geometry": { "type": "Point", "coordinates": [ 36.79944, -1.3176322 ] } },
{ "type": "Feature", "properties": { "name": "Kibera Soweto M-Afya Health Centre", "amenity_type": "clinic", "osm-type": "node", "latitude": -1.315161, "longitude": 36.799668 }, "geometry": { "type": "Point", "coordinates": [ 36.799668, -1.315161 ] } },
{ "type": "Feature", "properties": { "name": "Community Mobilizer", "amenity_type": "clinic", "osm-type": "node", "latitude": -1.3157734, "longitude": 36.7868505 }, "geometry": { "type": "Point", "coordinates": [ 36.7868505, -1.3157734 ] } },
{ "type": "Feature", "properties": { "name": "Shofco Shinning Hope for Communities", "amenity_type": "clinic", "osm-type": "node", "latitude": -1.315621, "longitude": 36.7805286 }, "geometry": { "type": "Point", "coordinates": [ 36.7805286, -1.315621 ] } },
{ "type": "Feature", "properties": { "name": "Herbal Clinic", "amenity_type": "clinic", "osm-type": "node", "latitude": -1.3113933, "longitude": 36.7943161 }, "geometry": { "type": "Point", "coordinates": [ 36.7943161, -1.3113933 ] } },
{ "type": "Feature", "properties": { "name": "Beyond Zero Community Clinic", "amenity_type": "clinic", "osm-type": "node", "latitude": -1.3141269, "longitude": 36.7785419 }, "geometry": { "type": "Point", "coordinates": [ 36.7785419, -1.3141269 ] } },
{ "type": "Feature", "properties": { "name": "Al- Gadhir Medical Clinic", "amenity_type": "clinic", "osm-type": "node", "latitude": -1.3097469, "longitude": 36.7854907 }, "geometry": { "type": "Point", "coordinates": [ 36.7854907, -1.3097469 ] } },
{ "type": "Feature", "properties": { "name": "Aga Khan Ridgeways Medical Centre", "amenity_type": "clinic", "osm-type": "node", "latitude": -1.2300084, "longitude": 36.8415548 }, "geometry": { "type": "Point", "coordinates": [ 36.8415548, -1.2300084 ] } },
{ "type": "Feature", "properties": { "name": "Aga Khan University Hospital Medical Centre", "amenity_type": "clinic", "osm-type": "node", "latitude": -1.2908247, "longitude": 36.7702909 }, "geometry": { "type": "Point", "coordinates": [ 36.7702909, -1.2908247 ] } },
{ "type": "Feature", "properties": { "name": "Dr Harun A. Otieno FACC", "amenity_type": "clinic", "osm-type": "node", "latitude": -1.2625569, "longitude": 36.8249575 }, "geometry": { "type": "Point", "coordinates": [ 36.8249575, -1.2625569 ] } },
{ "type": "Feature", "properties": { "name": "Migration Health Assessment Center (MHAC)", "amenity_type": "clinic", "osm-type": "node", "latitude": -1.2317424, "longitude": 36.8044524 }, "geometry": { "type": "Point", "coordinates": [ 36.8044524, -1.2317424 ] } },
{ "type": "Feature", "properties": { "name": "Mediplan Clinic Ltd Health Care Consultants", "amenity_type": "clinic", "osm-type": "node", "latitude": -1.3001978, "longitude": 36.8224486 }, "geometry": { "type": "Point", "coordinates": [ 36.8224486, -1.3001978 ] } },
{ "type": "Feature", "properties": { "name": "Kigen Bartilol", "amenity_type": "clinic", "osm-type": "node", "latitude": -1.2945593, "longitude": 36.8124954 }, "geometry": { "type": "Point", "coordinates": [ 36.8124954, -1.2945593 ] } },
{ "type": "Feature", "properties": { "name": "Pathway International", "amenity_type": "clinic", "osm-type": "node", "latitude": -1.2984412, "longitude": 36.8113444 }, "geometry": { "type": "Point", "coordinates": [ 36.8113444, -1.2984412 ] } },
{ "type": "Feature", "properties": { "name": "German Medical Center", "amenity_type": "clinic", "osm-type": "node", "latitude": -1.2984254, "longitude": 36.8111229 }, "geometry": { "type": "Point", "coordinates": [ 36.8111229, -1.2984254 ] } },
{ "type": "Feature", "properties": { "name": "Gilead Medical Centre", "amenity_type": "clinic", "osm-type": "node", "latitude": -1.2899138, "longitude": 36.8115943 }, "geometry": { "type": "Point", "coordinates": [ 36.8115943, -1.2899138 ] } },
{ "type": "Feature", "properties": { "name": "AAR Healthcare Williamson Outpatient Centre", "amenity_type": "clinic", "osm-type": "node", "latitude": -1.2944572, "longitude": 36.8091171 }, "geometry": { "type": "Point", "coordinates": [ 36.8091171, -1.2944572 ] } },
{ "type": "Feature", "properties": { "name": "Precise Diagnostic Imaging", "amenity_type": "clinic", "osm-type": "node", "latitude": -1.2957148, "longitude": 36.8081549 }, "geometry": { "type": "Point", "coordinates": [ 36.8081549, -1.2957148 ] } },
{ "type": "Feature", "properties": { "name": "IncusEar Hearing and E.N.T Centre", "amenity_type": "clinic", "osm-type": "node", "latitude": -1.2959296, "longitude": 36.8082667 }, "geometry": { "type": "Point", "coordinates": [ 36.8082667, -1.2959296 ] } },
{ "type": "Feature", "properties": { "name": "Prof Josephat A O Mulimba", "amenity_type": "clinic", "osm-type": "node", "latitude": -1.2946882, "longitude": 36.8065013 }, "geometry": { "type": "Point", "coordinates": [ 36.8065013, -1.2946882 ] } },
{ "type": "Feature", "properties": { "name": "Laser Stone & Endoscopy Centre", "amenity_type": "clinic", "osm-type": "node", "latitude": -1.2945712, "longitude": 36.8066523 }, "geometry": { "type": "Point", "coordinates": [ 36.8066523, -1.2945712 ] } },
{ "type": "Feature", "properties": { "name": "Comprehensive Care Centre", "amenity_type": "clinic", "osm-type": "node", "latitude": -1.3035206, "longitude": 36.8083045 }, "geometry": { "type": "Point", "coordinates": [ 36.8083045, -1.3035206 ] } },
{ "type": "Feature", "properties": { "name": "Careville Wellness Centre", "amenity_type": "clinic", "osm-type": "node", "latitude": -1.2989618, "longitude": 36.799752 }, "geometry": { "type": "Point", "coordinates": [ 36.799752, -1.2989618 ] } },
{ "type": "Feature", "properties": { "name": "Vips Health Services", "amenity_type": "clinic", "osm-type": "node", "latitude": -1.3022058, "longitude": 36.7890943 }, "geometry": { "type": "Point", "coordinates": [ 36.7890943, -1.3022058 ] } },
{ "type": "Feature", "properties": { "name": "Iran Medical Clinic", "amenity_type": "clinic", "osm-type": "node", "latitude": -1.3008639, "longitude": 36.7793505 }, "geometry": { "type": "Point", "coordinates": [ 36.7793505, -1.3008639 ] } },
{ "type": "Feature", "properties": { "name": "Aga Khan University Hospital Medical Centre", "amenity_type": "clinic", "osm-type": "node", "latitude": -1.3009005, "longitude": 36.7877061 }, "geometry": { "type": "Point", "coordinates": [ 36.7877061, -1.3009005 ] } },
{ "type": "Feature", "properties": { "name": "Taiba", "amenity_type": "clinic", "osm-type": "node", "latitude": -1.2757375, "longitude": 36.8308818 }, "geometry": { "type": "Point", "coordinates": [ 36.8308818, -1.2757375 ] } },
{ "type": "Feature", "properties": { "name": "Makadara Health Centre", "amenity_type": "clinic", "osm-type": "node", "latitude": -1.2967241, "longitude": 36.8733714 }, "geometry": { "type": "Point", "coordinates": [ 36.8733714, -1.2967241 ] } },
{ "type": "Feature", "properties": { "name": "Chinese Clinic", "amenity_type": "clinic", "osm-type": "node", "latitude": -1.2596704, "longitude": 36.8023954 }, "geometry": { "type": "Point", "coordinates": [ 36.8023954, -1.2596704 ] } },
{ "type": "Feature", "properties": { "name": "Nairobi Outpatient Centre Ltd", "amenity_type": "clinic", "osm-type": "node", "latitude": -1.2804367, "longitude": 36.8187332 }, "geometry": { "type": "Point", "coordinates": [ 36.8187332, -1.2804367 ] } },
{ "type": "Feature", "properties": { "name": "The Aga Khan University Hospital", "amenity_type": "clinic", "osm-type": "node", "latitude": -1.285773, "longitude": 36.8220131 }, "geometry": { "type": "Point", "coordinates": [ 36.8220131, -1.285773 ] } },
{ "type": "Feature", "properties": { "name": "Karen Hospital Clinic", "amenity_type": "clinic", "osm-type": "node", "latitude": -1.2838554, "longitude": 36.8178456 }, "geometry": { "type": "Point", "coordinates": [ 36.8178456, -1.2838554 ] } },
{ "type": "Feature", "properties": { "name": "Mater Hospital", "amenity_type": "clinic", "osm-type": "node", "latitude": -1.2879739, "longitude": 36.8272955 }, "geometry": { "type": "Point", "coordinates": [ 36.8272955, -1.2879739 ] } },
{ "type": "Feature", "properties": { "name": "Ngaira Health Centre", "amenity_type": "clinic", "osm-type": "node", "latitude": -1.2735567, "longitude": 36.8313235 }, "geometry": { "type": "Point", "coordinates": [ 36.8313235, -1.2735567 ] } },
{ "type": "Feature", "properties": { "name": "Access Afya Medical Clinic", "amenity_type": "clinic", "osm-type": "node", "latitude": -1.3093421, "longitude": 36.8784574 }, "geometry": { "type": "Point", "coordinates": [ 36.8784574, -1.3093421 ] } },
{ "type": "Feature", "properties": { "name": "MSF (Doctors Without Borders) medical center - Lavander clinic", "amenity_type": "clinic", "osm-type": "node", "latitude": -1.266017, "longitude": 36.8522643 }, "geometry": { "type": "Point", "coordinates": [ 36.8522643, -1.266017 ] } },
{ "type": "Feature", "properties": { "name": "Clinix Healthcare MFI", "amenity_type": "clinic", "osm-type": "node", "latitude": -1.3318863, "longitude": 36.8570218 }, "geometry": { "type": "Point", "coordinates": [ 36.8570218, -1.3318863 ] } },
{ "type": "Feature", "properties": { "name": "Gertrude's Children's Hospital", "amenity_type": "clinic", "osm-type": "node", "latitude": -1.3301109, "longitude": 36.8892935 }, "geometry": { "type": "Point", "coordinates": [ 36.8892935, -1.3301109 ] } },
{ "type": "Feature", "properties": { "name": "Nairobi Hospital Clinic", "amenity_type": "clinic", "osm-type": "node", "latitude": -1.3289332, "longitude": 36.8909788 }, "geometry": { "type": "Point", "coordinates": [ 36.8909788, -1.3289332 ] } },
{ "type": "Feature", "properties": { "name": "Medicross Clinic", "amenity_type": "clinic", "osm-type": "node", "latitude": -1.363962, "longitude": 36.9119033 }, "geometry": { "type": "Point", "coordinates": [ 36.9119033, -1.363962 ] } },
{ "type": "Feature", "properties": { "name": "Aga Khan University Hospital Medical Center", "amenity_type": "clinic", "osm-type": "node", "latitude": -1.3765098, "longitude": 36.9262854 }, "geometry": { "type": "Point", "coordinates": [ 36.9262854, -1.3765098 ] } },
{ "type": "Feature", "properties": { "name": "Kasarani Health Centre", "amenity_type": "clinic", "osm-type": "node", "latitude": -1.2212299, "longitude": 36.9022455 }, "geometry": { "type": "Point", "coordinates": [ 36.9022455, -1.2212299 ] } },
{ "type": "Feature", "properties": { "name": "Regatta Medical clinic", "amenity_type": "clinic", "osm-type": "node", "latitude": -1.3080084, "longitude": 36.7820293 }, "geometry": { "type": "Point", "coordinates": [ 36.7820293, -1.3080084 ] } },
{ "type": "Feature", "properties": { "name": "Centre for Tropical and Travel Medicine (CTTM)", "amenity_type": "clinic", "osm-type": "node", "latitude": -1.2994473, "longitude": 36.782335 }, "geometry": { "type": "Point", "coordinates": [ 36.782335, -1.2994473 ] } },
{ "type": "Feature", "properties": { "name": "Precise Clinic Laboratory", "amenity_type": "clinic", "osm-type": "node", "latitude": -1.2447201, "longitude": 36.6648115 }, "geometry": { "type": "Point", "coordinates": [ 36.6648115, -1.2447201 ] } },
{ "type": "Feature", "properties": { "name": "Plan Med Health Services", "amenity_type": "clinic", "osm-type": "node", "latitude": -1.2447017, "longitude": 36.6646981 }, "geometry": { "type": "Point", "coordinates": [ 36.6646981, -1.2447017 ] } },
{ "type": "Feature", "properties": { "name": "Premier Medical centre", "amenity_type": "clinic", "osm-type": "node", "latitude": -1.2450156, "longitude": 36.6630024 }, "geometry": { "type": "Point", "coordinates": [ 36.6630024, -1.2450156 ] } },
{ "type": "Feature", "properties": { "name": "Agha Khan University Hospital- Kikuyu medical Center", "amenity_type": "clinic", "osm-type": "node", "latitude": -1.2455788, "longitude": 36.6624606 }, "geometry": { "type": "Point", "coordinates": [ 36.6624606, -1.2455788 ] } },
{ "type": "Feature", "properties": { "name": "Equity Afya Medical Centre", "amenity_type": "clinic", "osm-type": "node", "latitude": -1.2441522, "longitude": 36.6626376 }, "geometry": { "type": "Point", "coordinates": [ 36.6626376, -1.2441522 ] } },
{ "type": "Feature", "properties": { "name": "St. Augustibe Physiotherapy Clinic Kikuyu", "amenity_type": "clinic", "osm-type": "node", "latitude": -1.244061, "longitude": 36.6625464 }, "geometry": { "type": "Point", "coordinates": [ 36.6625464, -1.244061 ] } },
{ "type": "Feature", "properties": { "name": "Jubilee Centre Karen", "amenity_type": "clinic", "osm-type": "node", "latitude": -1.3407826, "longitude": 36.757517 }, "geometry": { "type": "Point", "coordinates": [ 36.757517, -1.3407826 ] } },
{ "type": "Feature", "properties": { "name": "Aga Khan Clinic Embakasi", "amenity_type": "clinic", "osm-type": "node", "latitude": -1.3189242, "longitude": 36.8973899 }, "geometry": { "type": "Point", "coordinates": [ 36.8973899, -1.3189242 ] } },
{ "type": "Feature", "properties": { "name": "Silanga Health", "amenity_type": "clinic", "osm-type": "node", "latitude": -1.31009, "longitude": 36.78192 }, "geometry": { "type": "Point", "coordinates": [ 36.78192, -1.31009 ] } },
{ "type": "Feature", "properties": { "name": "Sprout Medical Clinic", "amenity_type": "clinic", "osm-type": "node", "latitude": -1.31463, "longitude": 36.796375 }, "geometry": { "type": "Point", "coordinates": [ 36.796375, -1.31463 ] } },
{ "type": "Feature", "properties": { "name": "Tumaini Medical", "amenity_type": "clinic", "osm-type": "node", "latitude": -1.3086922, "longitude": 36.7732159 }, "geometry": { "type": "Point", "coordinates": [ 36.7732159, -1.3086922 ] } },
{ "type": "Feature", "properties": { "name": "Radmed Kibera Ultrasound Center", "amenity_type": "clinic", "osm-type": "node", "latitude": -1.30776, "longitude": 36.78075 }, "geometry": { "type": "Point", "coordinates": [ 36.78075, -1.30776 ] } },
{ "type": "Feature", "properties": { "name": "Nakhayo clinic", "amenity_type": "clinic", "osm-type": "node", "latitude": -1.3116483, "longitude": 36.788155 }, "geometry": { "type": "Point", "coordinates": [ 36.788155, -1.3116483 ] } },
{ "type": "Feature", "properties": { "name": "Young Health Programme Kenya United", "amenity_type": "clinic", "osm-type": "node", "latitude": -1.3155729, "longitude": 36.7805751 }, "geometry": { "type": "Point", "coordinates": [ 36.7805751, -1.3155729 ] } },
{ "type": "Feature", "properties": { "name": "Senye Clinic", "amenity_type": "clinic", "osm-type": "node", "latitude": -1.3144733, "longitude": 36.7763167 }, "geometry": { "type": "Point", "coordinates": [ 36.7763167, -1.3144733 ] } },
{ "type": "Feature", "properties": { "name": "Ushirika Medical Clinic", "amenity_type": "clinic", "osm-type": "node", "latitude": -1.3078951, "longitude": 36.7728581 }, "geometry": { "type": "Point", "coordinates": [ 36.7728581, -1.3078951 ] } },
{ "type": "Feature", "properties": { "name": "Kisembo Health Services", "amenity_type": "clinic", "osm-type": "node", "latitude": -1.3132583, "longitude": 36.7900117 }, "geometry": { "type": "Point", "coordinates": [ 36.7900117, -1.3132583 ] } },
{ "type": "Feature", "properties": { "name": "Vostrum Clinic", "amenity_type": "clinic", "osm-type": "node", "latitude": -1.3076217, "longitude": 36.7810267 }, "geometry": { "type": "Point", "coordinates": [ 36.7810267, -1.3076217 ] } },
{ "type": "Feature", "properties": { "name": "Vimacare Clinic", "amenity_type": "clinic", "osm-type": "node", "latitude": -1.3147614, "longitude": 36.7920263 }, "geometry": { "type": "Point", "coordinates": [ 36.7920263, -1.3147614 ] } },
{ "type": "Feature", "properties": { "name": "Beyond Zero", "amenity_type": "clinic", "osm-type": "node", "latitude": -1.3112891, "longitude": 36.782289 }, "geometry": { "type": "Point", "coordinates": [ 36.782289, -1.3112891 ] } },
{ "type": "Feature", "properties": { "name": "Unnamed Facility", "amenity_type": "clinic", "osm-type": "node", "latitude": -1.3110298, "longitude": 36.7738124 }, "geometry": { "type": "Point", "coordinates": [ 36.7738124, -1.3110298 ] } },
{ "type": "Feature", "properties": { "name": "Chemi Chemi ya Uzima", "amenity_type": "clinic", "osm-type": "node", "latitude": -1.3071183, "longitude": 36.7879833 }, "geometry": { "type": "Point", "coordinates": [ 36.7879833, -1.3071183 ] } },
{ "type": "Feature", "properties": { "name": "Tabitha Medical Clinic", "amenity_type": "clinic", "osm-type": "node", "latitude": -1.316215, "longitude": 36.78019 }, "geometry": { "type": "Point", "coordinates": [ 36.78019, -1.316215 ] } },
{ "type": "Feature", "properties": { "name": "Shofco Satelit Clinic", "amenity_type": "clinic", "osm-type": "node", "latitude": -1.3168533, "longitude": 36.7828467 }, "geometry": { "type": "Point", "coordinates": [ 36.7828467, -1.3168533 ] } },
{ "type": "Feature", "properties": { "name": "Makina Clinic", "amenity_type": "clinic", "osm-type": "node", "latitude": -1.308625, "longitude": 36.7850167 }, "geometry": { "type": "Point", "coordinates": [ 36.7850167, -1.308625 ] } },
{ "type": "Feature", "properties": { "name": "Fhok-Family Care Medical Centre", "amenity_type": "clinic", "osm-type": "node", "latitude": -1.3117381, "longitude": 36.7935491 }, "geometry": { "type": "Point", "coordinates": [ 36.7935491, -1.3117381 ] } },
{ "type": "Feature", "properties": { "name": "Silanga Dispensary", "amenity_type": "clinic", "osm-type": "node", "latitude": -1.317265, "longitude": 36.796085 }, "geometry": { "type": "Point", "coordinates": [ 36.796085, -1.317265 ] } },
{ "type": "Feature", "properties": { "name": "St Francis Dental Clinic", "amenity_type": "clinic", "osm-type": "node", "latitude": -1.311865, "longitude": 36.79817 }, "geometry": { "type": "Point", "coordinates": [ 36.79817, -1.311865 ] } },
{ "type": "Feature", "properties": { "name": "Beyond Zero", "amenity_type": "clinic", "osm-type": "node", "latitude": -1.3076117, "longitude": 36.7720924 }, "geometry": { "type": "Point", "coordinates": [ 36.7720924, -1.3076117 ] } },
{ "type": "Feature", "properties": { "name": "Beyond Zero", "amenity_type": "clinic", "osm-type": "node", "latitude": -1.3144067, "longitude": 36.7915567 }, "geometry": { "type": "Point", "coordinates": [ 36.7915567, -1.3144067 ] } },
{ "type": "Feature", "properties": { "name": "Mercilin Afya Centre", "amenity_type": "clinic", "osm-type": "node", "latitude": -1.3129604, "longitude": 36.7843818 }, "geometry": { "type": "Point", "coordinates": [ 36.7843818, -1.3129604 ] } },
{ "type": "Feature", "properties": { "name": "Beyond Zero Dispensary", "amenity_type": "clinic", "osm-type": "node", "latitude": -1.3161517, "longitude": 36.7760183 }, "geometry": { "type": "Point", "coordinates": [ 36.7760183, -1.3161517 ] } },
{ "type": "Feature", "properties": { "name": "Ant-Hill Medical Clinic", "amenity_type": "clinic", "osm-type": "node", "latitude": -1.3110298, "longitude": 36.7749831 }, "geometry": { "type": "Point", "coordinates": [ 36.7749831, -1.3110298 ] } },
{ "type": "Feature", "properties": { "name": "Kinani Medical and Dental Clinic", "amenity_type": "clinic", "osm-type": "node", "latitude": -1.3104112, "longitude": 36.7739628 }, "geometry": { "type": "Point", "coordinates": [ 36.7739628, -1.3104112 ] } },
{ "type": "Feature", "properties": { "name": "Chemist", "amenity_type": "clinic", "osm-type": "node", "latitude": -1.3068833, "longitude": 36.786685 }, "geometry": { "type": "Point", "coordinates": [ 36.786685, -1.3068833 ] } },
{ "type": "Feature", "properties": { "name": "Fhok-Family Care Medical Centre", "amenity_type": "clinic", "osm-type": "node", "latitude": -1.312125, "longitude": 36.793995 }, "geometry": { "type": "Point", "coordinates": [ 36.793995, -1.312125 ] } },
{ "type": "Feature", "properties": { "name": "Nakhayo Clinic", "amenity_type": "clinic", "osm-type": "node", "latitude": -1.3114647, "longitude": 36.7879884 }, "geometry": { "type": "Point", "coordinates": [ 36.7879884, -1.3114647 ] } },
{ "type": "Feature", "properties": { "name": "Chemist", "amenity_type": "clinic", "osm-type": "node", "latitude": -1.307525, "longitude": 36.7862267 }, "geometry": { "type": "Point", "coordinates": [ 36.7862267, -1.307525 ] } },
{ "type": "Feature", "properties": { "name": "Carolina For Kibera", "amenity_type": "clinic", "osm-type": "node", "latitude": -1.3142683, "longitude": 36.7788467 }, "geometry": { "type": "Point", "coordinates": [ 36.7788467, -1.3142683 ] } },
{ "type": "Feature", "properties": { "name": "Beyond Zero", "amenity_type": "clinic", "osm-type": "node", "latitude": -1.3175083, "longitude": 36.7765933 }, "geometry": { "type": "Point", "coordinates": [ 36.7765933, -1.3175083 ] } },
{ "type": "Feature", "properties": { "name": "Rosade Pharmacy and Clinic", "amenity_type": "clinic", "osm-type": "node", "latitude": -1.311079, "longitude": 36.7753249 }, "geometry": { "type": "Point", "coordinates": [ 36.7753249, -1.311079 ] } },
{ "type": "Feature", "properties": { "name": "Swop Clinic", "amenity_type": "clinic", "osm-type": "node", "latitude": -1.3107583, "longitude": 36.7744025 }, "geometry": { "type": "Point", "coordinates": [ 36.7744025, -1.3107583 ] } },
{ "type": "Feature", "properties": { "name": "Frepals Nursing Home", "amenity_type": "clinic", "osm-type": "node", "latitude": -1.3115083, "longitude": 36.7929933 }, "geometry": { "type": "Point", "coordinates": [ 36.7929933, -1.3115083 ] } },
{ "type": "Feature", "properties": { "name": "Beyond Zero", "amenity_type": "clinic", "osm-type": "node", "latitude": -1.314155, "longitude": 36.7787117 }, "geometry": { "type": "Point", "coordinates": [ 36.7787117, -1.314155 ] } },
{ "type": "Feature", "properties": { "name": "Bliss", "amenity_type": "clinic", "osm-type": "node", "latitude": -1.3104463, "longitude": 36.7739802 }, "geometry": { "type": "Point", "coordinates": [ 36.7739802, -1.3104463 ] } },
{ "type": "Feature", "properties": { "name": "Senye Clinic", "amenity_type": "clinic", "osm-type": "node", "latitude": -1.3144967, "longitude": 36.77657 }, "geometry": { "type": "Point", "coordinates": [ 36.77657, -1.3144967 ] } },
{ "type": "Feature", "properties": { "name": "St Mary's Medical Clinic", "amenity_type": "clinic", "osm-type": "node", "latitude": -1.3119669, "longitude": 36.7836063 }, "geometry": { "type": "Point", "coordinates": [ 36.7836063, -1.3119669 ] } },
{ "type": "Feature", "properties": { "name": "Shofco", "amenity_type": "clinic", "osm-type": "node", "latitude": -1.3182517, "longitude": 36.7965483 }, "geometry": { "type": "Point", "coordinates": [ 36.7965483, -1.3182517 ] } },
{ "type": "Feature", "properties": { "name": "Divine Dispensary", "amenity_type": "clinic", "osm-type": "node", "latitude": -1.2665167, "longitude": 36.8464083 }, "geometry": { "type": "Point", "coordinates": [ 36.8464083, -1.2665167 ] } },
{ "type": "Feature", "properties": { "name": "Drug Safe Pharmacy", "amenity_type": "clinic", "osm-type": "node", "latitude": -1.2660967, "longitude": 36.84527 }, "geometry": { "type": "Point", "coordinates": [ 36.84527, -1.2660967 ] } },
{ "type": "Feature", "properties": { "name": "Villa Medical Center", "amenity_type": "clinic", "osm-type": "node", "latitude": -1.2629917, "longitude": 36.8634983 }, "geometry": { "type": "Point", "coordinates": [ 36.8634983, -1.2629917 ] } },
{ "type": "Feature", "properties": { "name": "Beth Clinic", "amenity_type": "clinic", "osm-type": "node", "latitude": -1.2655567, "longitude": 36.8432683 }, "geometry": { "type": "Point", "coordinates": [ 36.8432683, -1.2655567 ] } },
{ "type": "Feature", "properties": { "name": "Great Medical Hospital", "amenity_type": "clinic", "osm-type": "node", "latitude": -1.26535, "longitude": 36.8454817 }, "geometry": { "type": "Point", "coordinates": [ 36.8454817, -1.26535 ] } },
{ "type": "Feature", "properties": { "name": "Dawahouse Pharmacy", "amenity_type": "clinic", "osm-type": "node", "latitude": -1.2584617, "longitude": 36.86197 }, "geometry": { "type": "Point", "coordinates": [ 36.86197, -1.2584617 ] } },
{ "type": "Feature", "properties": { "name": "Mathare Edarp", "amenity_type": "clinic", "osm-type": "node", "latitude": -1.2656044, "longitude": 36.8568527 }, "geometry": { "type": "Point", "coordinates": [ 36.8568527, -1.2656044 ] } },
{ "type": "Feature", "properties": { "name": "Prospect Joslim Medicare", "amenity_type": "clinic", "osm-type": "node", "latitude": -1.263385, "longitude": 36.8506383 }, "geometry": { "type": "Point", "coordinates": [ 36.8506383, -1.263385 ] } },
{ "type": "Feature", "properties": { "name": "Curex Pharmacy", "amenity_type": "clinic", "osm-type": "node", "latitude": -1.2657683, "longitude": 36.84655 }, "geometry": { "type": "Point", "coordinates": [ 36.84655, -1.2657683 ] } },
{ "type": "Feature", "properties": { "name": "Nile Medical centre", "amenity_type": "clinic", "osm-type": "node", "latitude": -1.2619255, "longitude": 36.8574114 }, "geometry": { "type": "Point", "coordinates": [ 36.8574114, -1.2619255 ] } },
{ "type": "Feature", "properties": { "name": "Uzima White Health Center", "amenity_type": "clinic", "osm-type": "node", "latitude": -1.263545, "longitude": 36.8600433 }, "geometry": { "type": "Point", "coordinates": [ 36.8600433, -1.263545 ] } },
{ "type": "Feature", "properties": { "name": "Gifted Pharmacy", "amenity_type": "clinic", "osm-type": "node", "latitude": -1.2661717, "longitude": 36.845445 }, "geometry": { "type": "Point", "coordinates": [ 36.845445, -1.2661717 ] } },
{ "type": "Feature", "properties": { "name": "Loving Concern Medical Clinic", "amenity_type": "clinic", "osm-type": "node", "latitude": -1.2644167, "longitude": 36.845075 }, "geometry": { "type": "Point", "coordinates": [ 36.845075, -1.2644167 ] } },
{ "type": "Feature", "properties": { "name": "Pona", "amenity_type": "clinic", "osm-type": "node", "latitude": -1.2617117, "longitude": 36.8604017 }, "geometry": { "type": "Point", "coordinates": [ 36.8604017, -1.2617117 ] } },
{ "type": "Feature", "properties": { "name": "Core", "amenity_type": "clinic", "osm-type": "node", "latitude": -1.2618383, "longitude": 36.8593367 }, "geometry": { "type": "Point", "coordinates": [ 36.8593367, -1.2618383 ] } },
{ "type": "Feature", "properties": { "name": "Rhodics", "amenity_type": "clinic", "osm-type": "node", "latitude": -1.2582983, "longitude": 36.8623167 }, "geometry": { "type": "Point", "coordinates": [ 36.8623167, -1.2582983 ] } },
{ "type": "Feature", "properties": { "name": "View Point Medical", "amenity_type": "clinic", "osm-type": "node", "latitude": -1.2646083, "longitude": 36.8453567 }, "geometry": { "type": "Point", "coordinates": [ 36.8453567, -1.2646083 ] } },
{ "type": "Feature", "properties": { "name": "Access Afya Clinic", "amenity_type": "clinic", "osm-type": "node", "latitude": -1.265695, "longitude": 36.852515 }, "geometry": { "type": "Point", "coordinates": [ 36.852515, -1.265695 ] } },
{ "type": "Feature", "properties": { "name": "Undugu medical clinic", "amenity_type": "clinic", "osm-type": "node", "latitude": -1.2618057, "longitude": 36.8576891 }, "geometry": { "type": "Point", "coordinates": [ 36.8576891, -1.2618057 ] } },
{ "type": "Feature", "properties": { "name": "Undugu", "amenity_type": "clinic", "osm-type": "node", "latitude": -1.2617959, "longitude": 36.8576828 }, "geometry": { "type": "Point", "coordinates": [ 36.8576828, -1.2617959 ] } },
{ "type": "Feature", "properties": { "name": "Elykim health clinic", "amenity_type": "clinic", "osm-type": "node", "latitude": -1.2618936, "longitude": 36.8578486 }, "geometry": { "type": "Point", "coordinates": [ 36.8578486, -1.2618936 ] } },
{ "type": "Feature", "properties": { "name": "Neighborhood clinic", "amenity_type": "clinic", "osm-type": "node", "latitude": -1.2586743, "longitude": 36.8613148 }, "geometry": { "type": "Point", "coordinates": [ 36.8613148, -1.2586743 ] } },
{ "type": "Feature", "properties": { "name": "Vision Health Care", "amenity_type": "clinic", "osm-type": "node", "latitude": -1.2631309, "longitude": 36.8615971 }, "geometry": { "type": "Point", "coordinates": [ 36.8615971, -1.2631309 ] } },
{ "type": "Feature", "properties": { "name": "Rosa clinic", "amenity_type": "clinic", "osm-type": "node", "latitude": -1.2626898, "longitude": 36.8633061 }, "geometry": { "type": "Point", "coordinates": [ 36.8633061, -1.2626898 ] } },
{ "type": "Feature", "properties": { "name": "Alphamed clinic", "amenity_type": "clinic", "osm-type": "node", "latitude": -1.2621673, "longitude": 36.8552044 }, "geometry": { "type": "Point", "coordinates": [ 36.8552044, -1.2621673 ] } },
{ "type": "Feature", "properties": { "name": "Aphamed", "amenity_type": "clinic", "osm-type": "node", "latitude": -1.2625039, "longitude": 36.8552321 }, "geometry": { "type": "Point", "coordinates": [ 36.8552321, -1.2625039 ] } },
{ "type": "Feature", "properties": { "name": "IMANI CLINIC", "amenity_type": "clinic", "osm-type": "node", "latitude": -1.2645368, "longitude": 36.8491745 }, "geometry": { "type": "Point", "coordinates": [ 36.8491745, -1.2645368 ] } },
{ "type": "Feature", "properties": { "name": "Fairview Medical Centre", "amenity_type": "clinic", "osm-type": "node", "latitude": -1.2880667, "longitude": 36.7483217 }, "geometry": { "type": "Point", "coordinates": [ 36.7483217, -1.2880667 ] } },
{ "type": "Feature", "properties": { "name": "Kenishi Medical Clinic", "amenity_type": "clinic", "osm-type": "node", "latitude": -1.2861433, "longitude": 36.7454283 }, "geometry": { "type": "Point", "coordinates": [ 36.7454283, -1.2861433 ] } },
{ "type": "Feature", "properties": { "name": "Fourty Six Medical Center", "amenity_type": "clinic", "osm-type": "node", "latitude": -1.28613, "longitude": 36.74525 }, "geometry": { "type": "Point", "coordinates": [ 36.74525, -1.28613 ] } },
{ "type": "Feature", "properties": { "name": "Riruta Health Centre", "amenity_type": "clinic", "osm-type": "node", "latitude": -1.2866333, "longitude": 36.7412983 }, "geometry": { "type": "Point", "coordinates": [ 36.7412983, -1.2866333 ] } },
{ "type": "Feature", "properties": { "name": "Kwa Alex Medical", "amenity_type": "clinic", "osm-type": "node", "latitude": -1.2644675, "longitude": 36.8580697 }, "geometry": { "type": "Point", "coordinates": [ 36.8580697, -1.2644675 ] } },
{ "type": "Feature", "properties": { "name": "Loving Concerned medical Clinic", "amenity_type": "clinic", "osm-type": "node", "latitude": -1.2643602, "longitude": 36.8453536 }, "geometry": { "type": "Point", "coordinates": [ 36.8453536, -1.2643602 ] } },
{ "type": "Feature", "properties": { "name": "AAR Donholm", "amenity_type": "clinic", "osm-type": "node", "latitude": -1.301341, "longitude": 36.886188 }, "geometry": { "type": "Point", "coordinates": [ 36.886188, -1.301341 ] } },
{ "type": "Feature", "properties": { "name": "AAR Healthcare Buruburu", "amenity_type": "clinic", "osm-type": "node", "latitude": -1.283804, "longitude": 36.8799799 }, "geometry": { "type": "Point", "coordinates": [ 36.8799799, -1.283804 ] } },
{ "type": "Feature", "properties": { "name": "AAR Lavington OPC", "amenity_type": "clinic", "osm-type": "node", "latitude": -1.2896975, "longitude": 36.7714102 }, "geometry": { "type": "Point", "coordinates": [ 36.7714102, -1.2896975 ] } },
{ "type": "Feature", "properties": { "name": "Alter Care Limited", "amenity_type": "clinic", "osm-type": "node", "latitude": -1.2889834, "longitude": 36.7258752 }, "geometry": { "type": "Point", "coordinates": [ 36.7258752, -1.2889834 ] } },
{ "type": "Feature", "properties": { "name": "ABRA Health Services", "amenity_type": "clinic", "osm-type": "node", "latitude": -1.2919586, "longitude": 36.8196959 }, "geometry": { "type": "Point", "coordinates": [ 36.8196959, -1.2919586 ] } },
{ "type": "Feature", "properties": { "name": "Canaan Health Providers (Nairobi)", "amenity_type": "clinic", "osm-type": "node", "latitude": -1.284998, "longitude": 36.821774 }, "geometry": { "type": "Point", "coordinates": [ 36.821774, -1.284998 ] } },
{ "type": "Feature", "properties": { "name": "Access Afya Baba dogo", "amenity_type": "clinic", "osm-type": "node", "latitude": -1.2443291, "longitude": 36.8865237 }, "geometry": { "type": "Point", "coordinates": [ 36.8865237, -1.2443291 ] } },
{ "type": "Feature", "properties": { "name": "Cascade of Hope Health Care", "amenity_type": "clinic", "osm-type": "node", "latitude": -1.2253995, "longitude": 36.8954432 }, "geometry": { "type": "Point", "coordinates": [ 36.8954432, -1.2253995 ] } },
{ "type": "Feature", "properties": { "name": "Conerstone Clinic", "amenity_type": "clinic", "osm-type": "node", "latitude": -1.2482, "longitude": 36.916706 }, "geometry": { "type": "Point", "coordinates": [ 36.916706, -1.2482 ] } },
{ "type": "Feature", "properties": { "name": "Access Afya Kwa Reuben Clinic", "amenity_type": "clinic", "osm-type": "node", "latitude": -1.3133296, "longitude": 36.8694997 }, "geometry": { "type": "Point", "coordinates": [ 36.8694997, -1.3133296 ] } },
{ "type": "Feature", "properties": { "name": "Connections Medical Clinic", "amenity_type": "clinic", "osm-type": "node", "latitude": -1.3202578, "longitude": 36.9001918 }, "geometry": { "type": "Point", "coordinates": [ 36.9001918, -1.3202578 ] } },
{ "type": "Feature", "properties": { "name": "APTC Health Centre", "amenity_type": "clinic", "osm-type": "node", "latitude": -1.291843, "longitude": 36.956703 }, "geometry": { "type": "Point", "coordinates": [ 36.956703, -1.291843 ] } },
{ "type": "Feature", "properties": { "name": "Access Afya Kiambiu", "amenity_type": "clinic", "osm-type": "node", "latitude": -1.2822758, "longitude": 36.8634101 }, "geometry": { "type": "Point", "coordinates": [ 36.8634101, -1.2822758 ] } },
{ "type": "Feature", "properties": { "name": "Cefi Nursing Home", "amenity_type": "clinic", "osm-type": "node", "latitude": -1.2653009, "longitude": 36.8819108 }, "geometry": { "type": "Point", "coordinates": [ 36.8819108, -1.2653009 ] } },
{ "type": "Feature", "properties": { "name": "Africare Limited Embakasi Clinic", "amenity_type": "clinic", "osm-type": "node", "latitude": -1.329814, "longitude": 36.887248 }, "geometry": { "type": "Point", "coordinates": [ 36.887248, -1.329814 ] } },
{ "type": "Feature", "properties": { "name": "Chasmile Medical Clinic", "amenity_type": "clinic", "osm-type": "node", "latitude": -1.2773942, "longitude": 36.9136036 }, "geometry": { "type": "Point", "coordinates": [ 36.9136036, -1.2773942 ] } },
{ "type": "Feature", "properties": { "name": "Amref Medical Centre (Wilson Airport)", "amenity_type": "clinic", "osm-type": "node", "latitude": -1.3178054, "longitude": 36.8126096 }, "geometry": { "type": "Point", "coordinates": [ 36.8126096, -1.3178054 ] } },
{ "type": "Feature", "properties": { "name": "Adopta Life Foundation (Ruai)", "amenity_type": "clinic", "osm-type": "node", "latitude": -1.2709062, "longitude": 36.9951041 }, "geometry": { "type": "Point", "coordinates": [ 36.9951041, -1.2709062 ] } },
{ "type": "Feature", "properties": { "name": "CIDI Mukuru Clinic", "amenity_type": "clinic", "osm-type": "node", "latitude": -1.315, "longitude": 36.888706 }, "geometry": { "type": "Point", "coordinates": [ 36.888706, -1.315 ] } },
{ "type": "Feature", "properties": { "name": "City Health Limited", "amenity_type": "clinic", "osm-type": "node", "latitude": -1.2832573, "longitude": 36.8228754 }, "geometry": { "type": "Point", "coordinates": [ 36.8228754, -1.2832573 ] } },
{ "type": "Feature", "properties": { "name": "City Jacaranda SDA Church Clinic", "amenity_type": "clinic", "osm-type": "node", "latitude": -1.2678236, "longitude": 36.9884274 }, "geometry": { "type": "Point", "coordinates": [ 36.9884274, -1.2678236 ] } },
{ "type": "Feature", "properties": { "name": "Avenue Health Care Embakasi", "amenity_type": "clinic", "osm-type": "node", "latitude": -1.3281535, "longitude": 36.8895632 }, "geometry": { "type": "Point", "coordinates": [ 36.8895632, -1.3281535 ] } },
{ "type": "Feature", "properties": { "name": "Arawelo Medical Centre Limited", "amenity_type": "clinic", "osm-type": "node", "latitude": -1.3205639, "longitude": 36.8236578 }, "geometry": { "type": "Point", "coordinates": [ 36.8236578, -1.3205639 ] } },
{ "type": "Feature", "properties": { "name": "Aga Khan University Hospital - (Greenspan Mall Clinic)", "amenity_type": "clinic", "osm-type": "node", "latitude": -1.288816, "longitude": 36.9011334 }, "geometry": { "type": "Point", "coordinates": [ 36.9011334, -1.288816 ] } },
{ "type": "Feature", "properties": { "name": "City Point Medical Centre", "amenity_type": "clinic", "osm-type": "node", "latitude": -1.2788853, "longitude": 36.848594 }, "geometry": { "type": "Point", "coordinates": [ 36.848594, -1.2788853 ] } },
{ "type": "Feature", "properties": { "name": "Arrow Web Clinic", "amenity_type": "clinic", "osm-type": "node", "latitude": -1.274196, "longitude": 36.915349 }, "geometry": { "type": "Point", "coordinates": [ 36.915349, -1.274196 ] } },
{ "type": "Feature", "properties": { "name": "Africare Ltd (South C)", "amenity_type": "clinic", "osm-type": "node", "latitude": -1.352216, "longitude": 36.8927797 }, "geometry": { "type": "Point", "coordinates": [ 36.8927797, -1.352216 ] } },
{ "type": "Feature", "properties": { "name": "Doctors Park", "amenity_type": "clinic", "osm-type": "node", "latitude": -1.2613695, "longitude": 36.8218485 }, "geometry": { "type": "Point", "coordinates": [ 36.8218485, -1.2613695 ] } },
{ "type": "Feature", "properties": { "name": "Bahati Health Centre", "amenity_type": "clinic", "osm-type": "node", "latitude": -1.2890282, "longitude": 36.8606809 }, "geometry": { "type": "Point", "coordinates": [ 36.8606809, -1.2890282 ] } },
{ "type": "Feature", "properties": { "name": "AVENUE HEALTHCARE GREENSPAN", "amenity_type": "clinic", "osm-type": "node", "latitude": -1.2888185, "longitude": 36.9011917 }, "geometry": { "type": "Point", "coordinates": [ 36.9011917, -1.2888185 ] } },
{ "type": "Feature", "properties": { "name": "Agakhan University Hospital Valley Arcade Clinic", "amenity_type": "clinic", "osm-type": "node", "latitude": -1.2614711, "longitude": 36.8205792 }, "geometry": { "type": "Point", "coordinates": [ 36.8205792, -1.2614711 ] } },
{ "type": "Feature", "properties": { "name": "Bliss GVS Embakasi Clinic", "amenity_type": "clinic", "osm-type": "node", "latitude": -1.309646, "longitude": 36.90988 }, "geometry": { "type": "Point", "coordinates": [ 36.90988, -1.309646 ] } },
{ "type": "Feature", "properties": { "name": "Bahati Tassia Medical Centre", "amenity_type": "clinic", "osm-type": "node", "latitude": -1.3060895, "longitude": 36.9004979 }, "geometry": { "type": "Point", "coordinates": [ 36.9004979, -1.3060895 ] } },
{ "type": "Feature", "properties": { "name": "Dandora Health Services", "amenity_type": "clinic", "osm-type": "node", "latitude": -1.2456646, "longitude": 36.9076601 }, "geometry": { "type": "Point", "coordinates": [ 36.9076601, -1.2456646 ] } },
{ "type": "Feature", "properties": { "name": "Bliss GVS Health Care (college House)", "amenity_type": "clinic", "osm-type": "node", "latitude": -1.2813167, "longitude": 36.8154496 }, "geometry": { "type": "Point", "coordinates": [ 36.8154496, -1.2813167 ] } },
{ "type": "Feature", "properties": { "name": "Dandora I Health Centre", "amenity_type": "clinic", "osm-type": "node", "latitude": -1.2482996, "longitude": 36.9003874 }, "geometry": { "type": "Point", "coordinates": [ 36.9003874, -1.2482996 ] } },
{ "type": "Feature", "properties": { "name": "Bliss GVS Health Care (Teleposta Clinic)", "amenity_type": "clinic", "osm-type": "node", "latitude": -1.2861561, "longitude": 36.8174704 }, "geometry": { "type": "Point", "coordinates": [ 36.8174704, -1.2861561 ] } },
{ "type": "Feature", "properties": { "name": "Blissgvs Health Care(Pipeline)", "amenity_type": "clinic", "osm-type": "node", "latitude": -1.3178339, "longitude": 36.8943307 }, "geometry": { "type": "Point", "coordinates": [ 36.8943307, -1.3178339 ] } },
{ "type": "Feature", "properties": { "name": "Dr Lang'o Medical clinic", "amenity_type": "clinic", "osm-type": "node", "latitude": -1.2892786, "longitude": 36.7847371 }, "geometry": { "type": "Point", "coordinates": [ 36.7847371, -1.2892786 ] } },
{ "type": "Feature", "properties": { "name": "Dornaled Community Health Centre and Maternity", "amenity_type": "clinic", "osm-type": "node", "latitude": -1.2253995, "longitude": 36.8954432 }, "geometry": { "type": "Point", "coordinates": [ 36.8954432, -1.2253995 ] } },
{ "type": "Feature", "properties": { "name": "Brother Andre Medial Centre", "amenity_type": "clinic", "osm-type": "node", "latitude": -1.2438767, "longitude": 36.9049028 }, "geometry": { "type": "Point", "coordinates": [ 36.9049028, -1.2438767 ] } },
{ "type": "Feature", "properties": { "name": "Dr S N Karau & Associates Clinic", "amenity_type": "clinic", "osm-type": "node", "latitude": -1.25886, "longitude": 36.811774 }, "geometry": { "type": "Point", "coordinates": [ 36.811774, -1.25886 ] } },
{ "type": "Feature", "properties": { "name": "Dr.Joy P.Mpaata", "amenity_type": "clinic", "osm-type": "node", "latitude": -1.295447, "longitude": 36.802938 }, "geometry": { "type": "Point", "coordinates": [ 36.802938, -1.295447 ] } },
{ "type": "Feature", "properties": { "name": "Dr.Stephen Kamore Wanjohi", "amenity_type": "clinic", "osm-type": "node", "latitude": -1.2598822, "longitude": 36.8156978 }, "geometry": { "type": "Point", "coordinates": [ 36.8156978, -1.2598822 ] } },
{ "type": "Feature", "properties": { "name": "Berton Health Specialists Clinic", "amenity_type": "clinic", "osm-type": "node", "latitude": -1.2196396, "longitude": 36.8878275 }, "geometry": { "type": "Point", "coordinates": [ 36.8878275, -1.2196396 ] } },
{ "type": "Feature", "properties": { "name": "Best Health Care Community Services", "amenity_type": "clinic", "osm-type": "node", "latitude": -1.2760614, "longitude": 36.9868969 }, "geometry": { "type": "Point", "coordinates": [ 36.9868969, -1.2760614 ] } },
{ "type": "Feature", "properties": { "name": "Beta Care Setlite clinic", "amenity_type": "clinic", "osm-type": "node", "latitude": -1.2775392, "longitude": 36.8273072 }, "geometry": { "type": "Point", "coordinates": [ 36.8273072, -1.2775392 ] } },
{ "type": "Feature", "properties": { "name": "Blessed Medicare Centre", "amenity_type": "clinic", "osm-type": "node", "latitude": -1.3134433, "longitude": 36.8860328 }, "geometry": { "type": "Point", "coordinates": [ 36.8860328, -1.3134433 ] } },
{ "type": "Feature", "properties": { "name": "Blessed to Bless Medical Clinic", "amenity_type": "clinic", "osm-type": "node", "latitude": -1.2918353, "longitude": 36.8196235 }, "geometry": { "type": "Point", "coordinates": [ 36.8196235, -1.2918353 ] } },
{ "type": "Feature", "properties": { "name": "Edarp Donholm Clinic", "amenity_type": "clinic", "osm-type": "node", "latitude": -1.301903, "longitude": 36.886121 }, "geometry": { "type": "Point", "coordinates": [ 36.886121, -1.301903 ] } },
{ "type": "Feature", "properties": { "name": "Embakasi Health Centre", "amenity_type": "clinic", "osm-type": "node", "latitude": -1.3106081, "longitude": 36.9139601 }, "geometry": { "type": "Point", "coordinates": [ 36.9139601, -1.3106081 ] } },
{ "type": "Feature", "properties": { "name": "Equata Medical Center", "amenity_type": "clinic", "osm-type": "node", "latitude": -1.2810782, "longitude": 36.9118886 }, "geometry": { "type": "Point", "coordinates": [ 36.9118886, -1.2810782 ] } },
{ "type": "Feature", "properties": { "name": "Equity Afia Biashara Street", "amenity_type": "clinic", "osm-type": "node", "latitude": -1.2821334, "longitude": 36.8178684 }, "geometry": { "type": "Point", "coordinates": [ 36.8178684, -1.2821334 ] } },
{ "type": "Feature", "properties": { "name": "Equity Afia Githurai", "amenity_type": "clinic", "osm-type": "node", "latitude": -1.2039819, "longitude": 36.9158959 }, "geometry": { "type": "Point", "coordinates": [ 36.9158959, -1.2039819 ] } },
{ "type": "Feature", "properties": { "name": "Getrude Embakasi Clinic", "amenity_type": "clinic", "osm-type": "node", "latitude": -1.3300926, "longitude": 36.8871144 }, "geometry": { "type": "Point", "coordinates": [ 36.8871144, -1.3300926 ] } },
{ "type": "Feature", "properties": { "name": "Getrude Donholm Clinic", "amenity_type": "clinic", "osm-type": "node", "latitude": -1.2954959, "longitude": 36.8856056 }, "geometry": { "type": "Point", "coordinates": [ 36.8856056, -1.2954959 ] } },
{ "type": "Feature", "properties": { "name": "Gertrudes Children's Hospital", "amenity_type": "clinic", "osm-type": "node", "latitude": -1.298149, "longitude": 36.7619147 }, "geometry": { "type": "Point", "coordinates": [ 36.7619147, -1.298149 ] } },
{ "type": "Feature", "properties": { "name": "Genessaret Clinic", "amenity_type": "clinic", "osm-type": "node", "latitude": -1.2921061, "longitude": 36.8197254 }, "geometry": { "type": "Point", "coordinates": [ 36.8197254, -1.2921061 ] } },
{ "type": "Feature", "properties": { "name": "Equity Afia Kawangware", "amenity_type": "clinic", "osm-type": "node", "latitude": -1.2886178, "longitude": 36.7434232 }, "geometry": { "type": "Point", "coordinates": [ 36.7434232, -1.2886178 ] } },
{ "type": "Feature", "properties": { "name": "Equity Afia Medical Centre- Kahawa West", "amenity_type": "clinic", "osm-type": "node", "latitude": -1.1829497, "longitude": 36.8946147 }, "geometry": { "type": "Point", "coordinates": [ 36.8946147, -1.1829497 ] } },
{ "type": "Feature", "properties": { "name": "Equity Afia Utawala Medical Centre", "amenity_type": "clinic", "osm-type": "node", "latitude": -1.2848126, "longitude": 36.9563751 }, "geometry": { "type": "Point", "coordinates": [ 36.9563751, -1.2848126 ] } },
{ "type": "Feature", "properties": { "name": "Euraka Medical Centre", "amenity_type": "clinic", "osm-type": "node", "latitude": -1.2922187, "longitude": 36.8198273 }, "geometry": { "type": "Point", "coordinates": [ 36.8198273, -1.2922187 ] } },
{ "type": "Feature", "properties": { "name": "Kayole Outpatient Clinics", "amenity_type": "clinic", "osm-type": "node", "latitude": -1.267503, "longitude": 36.913667 }, "geometry": { "type": "Point", "coordinates": [ 36.913667, -1.267503 ] } },
{ "type": "Feature", "properties": { "name": "Hakika Medical clinic", "amenity_type": "clinic", "osm-type": "node", "latitude": -1.2534265, "longitude": 36.879333 }, "geometry": { "type": "Point", "coordinates": [ 36.879333, -1.2534265 ] } },
{ "type": "Feature", "properties": { "name": "Harley Street Fertility Centre Kenya Ltd.", "amenity_type": "clinic", "osm-type": "node", "latitude": -1.2613093, "longitude": 36.8374752 }, "geometry": { "type": "Point", "coordinates": [ 36.8374752, -1.2613093 ] } },
{ "type": "Feature", "properties": { "name": "Kibagare Medical Clinic", "amenity_type": "clinic", "osm-type": "node", "latitude": -1.2499936, "longitude": 36.7836348 }, "geometry": { "type": "Point", "coordinates": [ 36.7836348, -1.2499936 ] } },
{ "type": "Feature", "properties": { "name": "Hashi Medical Centre Limited", "amenity_type": "clinic", "osm-type": "node", "latitude": -1.2638579, "longitude": 36.8066001 }, "geometry": { "type": "Point", "coordinates": [ 36.8066001, -1.2638579 ] } },
{ "type": "Feature", "properties": { "name": "Kilele Medical Specialist Centre", "amenity_type": "clinic", "osm-type": "node", "latitude": -1.2943093, "longitude": 36.8738208 }, "geometry": { "type": "Point", "coordinates": [ 36.8738208, -1.2943093 ] } },
{ "type": "Feature", "properties": { "name": "Havans Medical Centre", "amenity_type": "clinic", "osm-type": "node", "latitude": -1.2920659, "longitude": 36.8197522 }, "geometry": { "type": "Point", "coordinates": [ 36.8197522, -1.2920659 ] } },
{ "type": "Feature", "properties": { "name": "Kilimani Childrens Clinic", "amenity_type": "clinic", "osm-type": "node", "latitude": -1.2839561, "longitude": 36.789738 }, "geometry": { "type": "Point", "coordinates": [ 36.789738, -1.2839561 ] } },
{ "type": "Feature", "properties": { "name": "Havilah Medical Centre", "amenity_type": "clinic", "osm-type": "node", "latitude": -1.3178784, "longitude": 36.8943295 }, "geometry": { "type": "Point", "coordinates": [ 36.8943295, -1.3178784 ] } },
{ "type": "Feature", "properties": { "name": "Kizazi Clinique", "amenity_type": "clinic", "osm-type": "node", "latitude": -1.2237853, "longitude": 36.9124453 }, "geometry": { "type": "Point", "coordinates": [ 36.9124453, -1.2237853 ] } },
{ "type": "Feature", "properties": { "name": "Koki Medical Clinic", "amenity_type": "clinic", "osm-type": "node", "latitude": -1.2678642, "longitude": 36.9200854 }, "geometry": { "type": "Point", "coordinates": [ 36.9200854, -1.2678642 ] } },
{ "type": "Feature", "properties": { "name": "Health Basics International (Ruaraka)", "amenity_type": "clinic", "osm-type": "node", "latitude": -1.2322018, "longitude": 36.8815921 }, "geometry": { "type": "Point", "coordinates": [ 36.8815921, -1.2322018 ] } },
{ "type": "Feature", "properties": { "name": "Helpers Health Services", "amenity_type": "clinic", "osm-type": "node", "latitude": -1.2064151, "longitude": 36.9116 }, "geometry": { "type": "Point", "coordinates": [ 36.9116, -1.2064151 ] } },
{ "type": "Feature", "properties": { "name": "Imara Health Centre", "amenity_type": "clinic", "osm-type": "node", "latitude": -1.293187, "longitude": 36.913188 }, "geometry": { "type": "Point", "coordinates": [ 36.913188, -1.293187 ] } },
{ "type": "Feature", "properties": { "name": "International Health Care Limited", "amenity_type": "clinic", "osm-type": "node", "latitude": -1.2847801, "longitude": 36.8315803 }, "geometry": { "type": "Point", "coordinates": [ 36.8315803, -1.2847801 ] } },
{ "type": "Feature", "properties": { "name": "Lengo Medical Clinic", "amenity_type": "clinic", "osm-type": "node", "latitude": -1.3118039, "longitude": 36.8446562 }, "geometry": { "type": "Point", "coordinates": [ 36.8446562, -1.3118039 ] } },
{ "type": "Feature", "properties": { "name": "Kware Dispensary", "amenity_type": "clinic", "osm-type": "node", "latitude": -1.2978743, "longitude": 36.9013864 }, "geometry": { "type": "Point", "coordinates": [ 36.9013864, -1.2978743 ] } },
{ "type": "Feature", "properties": { "name": "Lagos Road Dispensary", "amenity_type": "clinic", "osm-type": "node", "latitude": -1.2820159, "longitude": 36.8217337 }, "geometry": { "type": "Point", "coordinates": [ 36.8217337, -1.2820159 ] } },
{ "type": "Feature", "properties": { "name": "Kasarani Claycity Medical Centre (Kasarani)", "amenity_type": "clinic", "osm-type": "node", "latitude": -1.2183825, "longitude": 36.9031663 }, "geometry": { "type": "Point", "coordinates": [ 36.9031663, -1.2183825 ] } },
{ "type": "Feature", "properties": { "name": "Isaan Medical Clinic", "amenity_type": "clinic", "osm-type": "node", "latitude": -1.316146, "longitude": 36.9152788 }, "geometry": { "type": "Point", "coordinates": [ 36.9152788, -1.316146 ] } },
{ "type": "Feature", "properties": { "name": "Exselle Health Care", "amenity_type": "clinic", "osm-type": "node", "latitude": -1.2921463, "longitude": 36.8198005 }, "geometry": { "type": "Point", "coordinates": [ 36.8198005, -1.2921463 ] } },
{ "type": "Feature", "properties": { "name": "Family Access Medical Centre", "amenity_type": "clinic", "osm-type": "node", "latitude": -1.2145367, "longitude": 36.8935115 }, "geometry": { "type": "Point", "coordinates": [ 36.8935115, -1.2145367 ] } },
{ "type": "Feature", "properties": { "name": "Fairview Nursing Home Kware", "amenity_type": "clinic", "osm-type": "node", "latitude": -1.314624, "longitude": 36.872528 }, "geometry": { "type": "Point", "coordinates": [ 36.872528, -1.314624 ] } },
{ "type": "Feature", "properties": { "name": "Kenya Pipeline Staff Clinic", "amenity_type": "clinic", "osm-type": "node", "latitude": -1.3112846, "longitude": 36.8719373 }, "geometry": { "type": "Point", "coordinates": [ 36.8719373, -1.3112846 ] } },
{ "type": "Feature", "properties": { "name": "Jamii Wellness Hospital", "amenity_type": "clinic", "osm-type": "node", "latitude": -1.266619, "longitude": 36.883453 }, "geometry": { "type": "Point", "coordinates": [ 36.883453, -1.266619 ] } },
{ "type": "Feature", "properties": { "name": "Jekam Medical Centre", "amenity_type": "clinic", "osm-type": "node", "latitude": -1.2249319, "longitude": 36.921213 }, "geometry": { "type": "Point", "coordinates": [ 36.921213, -1.2249319 ] } },
{ "type": "Feature", "properties": { "name": "JKIA Health Centre", "amenity_type": "clinic", "osm-type": "node", "latitude": -1.313535, "longitude": 36.8829274 }, "geometry": { "type": "Point", "coordinates": [ 36.8829274, -1.313535 ] } },
{ "type": "Feature", "properties": { "name": "Mwananchi Clinic", "amenity_type": "clinic", "osm-type": "node", "latitude": -1.3025544, "longitude": 36.7430803 }, "geometry": { "type": "Point", "coordinates": [ 36.7430803, -1.3025544 ] } },
{ "type": "Feature", "properties": { "name": "Gonga Njaa", "amenity_type": "clinic", "osm-type": "node", "latitude": -1.2468189, "longitude": 36.8914208 }, "geometry": { "type": "Point", "coordinates": [ 36.8914208, -1.2468189 ] } },
{ "type": "Feature", "properties": { "name": "Mwangaza Ulio na Tumaini Clinic", "amenity_type": "clinic", "osm-type": "node", "latitude": -1.25107, "longitude": 36.8919 }, "geometry": { "type": "Point", "coordinates": [ 36.8919, -1.25107 ] } },
{ "type": "Feature", "properties": { "name": "Korogocho Health Centre", "amenity_type": "clinic", "osm-type": "node", "latitude": -1.2517, "longitude": 36.8892 }, "geometry": { "type": "Point", "coordinates": [ 36.8892, -1.2517 ] } },
{ "type": "Feature", "properties": { "name": "Makwak (Maendneleo Afya Kwa Wote Korogocho)", "amenity_type": "clinic", "osm-type": "node", "latitude": -1.25211, "longitude": 36.8892 }, "geometry": { "type": "Point", "coordinates": [ 36.8892, -1.25211 ] } },
{ "type": "Feature", "properties": { "name": "Amana Medical Clinic and Family", "amenity_type": "clinic", "osm-type": "node", "latitude": -1.2565, "longitude": 36.8861 }, "geometry": { "type": "Point", "coordinates": [ 36.8861, -1.2565 ] } },
{ "type": "Feature", "properties": { "name": "Vission Medical clinic and maternity", "amenity_type": "clinic", "osm-type": "node", "latitude": -1.25023, "longitude": 36.8898 }, "geometry": { "type": "Point", "coordinates": [ 36.8898, -1.25023 ] } },
{ "type": "Feature", "properties": { "name": "Provide International Korogocho", "amenity_type": "clinic", "osm-type": "node", "latitude": -1.25026, "longitude": 36.8885 }, "geometry": { "type": "Point", "coordinates": [ 36.8885, -1.25026 ] } },
{ "type": "Feature", "properties": { "name": "Comboni Sister Missionary Health Program / G031055", "amenity_type": "clinic", "osm-type": "node", "latitude": -1.24789, "longitude": 36.8908 }, "geometry": { "type": "Point", "coordinates": [ 36.8908, -1.24789 ] } },
{ "type": "Feature", "properties": { "name": "Kingstone Clinic", "amenity_type": "clinic", "osm-type": "node", "latitude": -1.31246, "longitude": 36.8643 }, "geometry": { "type": "Point", "coordinates": [ 36.8643, -1.31246 ] } },
{ "type": "Feature", "properties": { "name": "Modan Medical Center", "amenity_type": "clinic", "osm-type": "node", "latitude": -1.31218, "longitude": 36.8672 }, "geometry": { "type": "Point", "coordinates": [ 36.8672, -1.31218 ] } },
{ "type": "Feature", "properties": { "name": "St. Joans Medical Center", "amenity_type": "clinic", "osm-type": "node", "latitude": -1.31073, "longitude": 36.8706 }, "geometry": { "type": "Point", "coordinates": [ 36.8706, -1.31073 ] } },
{ "type": "Feature", "properties": { "name": "Melihep Medical Clinic", "amenity_type": "clinic", "osm-type": "node", "latitude": -1.31069, "longitude": 36.8704 }, "geometry": { "type": "Point", "coordinates": [ 36.8704, -1.31069 ] } },
{ "type": "Feature", "properties": { "name": "Flodo Medical and curative services", "amenity_type": "clinic", "osm-type": "node", "latitude": -1.31009, "longitude": 36.8746 }, "geometry": { "type": "Point", "coordinates": [ 36.8746, -1.31009 ] } },
{ "type": "Feature", "properties": { "name": "Access Afya", "amenity_type": "clinic", "osm-type": "node", "latitude": -1.30932, "longitude": 36.8784 }, "geometry": { "type": "Point", "coordinates": [ 36.8784, -1.30932 ] } },
{ "type": "Feature", "properties": { "name": "Msamaria Mwema clinic", "amenity_type": "clinic", "osm-type": "node", "latitude": -1.3093, "longitude": 36.8782 }, "geometry": { "type": "Point", "coordinates": [ 36.8782, -1.3093 ] } },
{ "type": "Feature", "properties": { "name": "Olive Link Medical Center", "amenity_type": "clinic", "osm-type": "node", "latitude": -1.30895, "longitude": 36.8813 }, "geometry": { "type": "Point", "coordinates": [ 36.8813, -1.30895 ] } },
{ "type": "Feature", "properties": { "name": "Huduma Bora Medical Center", "amenity_type": "clinic", "osm-type": "node", "latitude": -1.30534, "longitude": 36.8843 }, "geometry": { "type": "Point", "coordinates": [ 36.8843, -1.30534 ] } },
{ "type": "Feature", "properties": { "name": "Selina Hospital", "amenity_type": "clinic", "osm-type": "node", "latitude": -1.2526389, "longitude": 36.8842724 }, "geometry": { "type": "Point", "coordinates": [ 36.8842724, -1.2526389 ] } },
{ "type": "Feature", "properties": { "name": "Siwandhe Pharmacy", "amenity_type": "clinic", "osm-type": "node", "latitude": -1.2447046, "longitude": 36.8935644 }, "geometry": { "type": "Point", "coordinates": [ 36.8935644, -1.2447046 ] } },
{ "type": "Feature", "properties": { "name": "Jahmii Kipawa", "amenity_type": "clinic", "osm-type": "node", "latitude": -1.2521012, "longitude": 36.8819405 }, "geometry": { "type": "Point", "coordinates": [ 36.8819405, -1.2521012 ] } },
{ "type": "Feature", "properties": { "name": "Kariobangi Health Centre", "amenity_type": "clinic", "osm-type": "node", "latitude": -1.2547051, "longitude": 36.8806791 }, "geometry": { "type": "Point", "coordinates": [ 36.8806791, -1.2547051 ] } },
{ "type": "Feature", "properties": { "name": "Sex Workers Organisation Program (SWOP) Kariobangi", "amenity_type": "clinic", "osm-type": "node", "latitude": -1.2563656, "longitude": 36.8825399 }, "geometry": { "type": "Point", "coordinates": [ 36.8825399, -1.2563656 ] } },
{ "type": "Feature", "properties": { "name": "Catholic Dispensary Kariobangi", "amenity_type": "clinic", "osm-type": "node", "latitude": -1.2577118, "longitude": 36.8799541 }, "geometry": { "type": "Point", "coordinates": [ 36.8799541, -1.2577118 ] } },
{ "type": "Feature", "properties": { "name": "Lunga Lunga Health Center", "amenity_type": "clinic", "osm-type": "node", "latitude": -1.310581, "longitude": 36.8624078 }, "geometry": { "type": "Point", "coordinates": [ 36.8624078, -1.310581 ] } },
{ "type": "Feature", "properties": { "name": "Coptic Hospital Lunga Lunga", "amenity_type": "clinic", "osm-type": "node", "latitude": -1.3083805, "longitude": 36.86318 }, "geometry": { "type": "Point", "coordinates": [ 36.86318, -1.3083805 ] } },
{ "type": "Feature", "properties": { "name": "Gibbos Clinic", "amenity_type": "clinic", "osm-type": "node", "latitude": -1.2901558, "longitude": 36.9727891 }, "geometry": { "type": "Point", "coordinates": [ 36.9727891, -1.2901558 ] } },
{ "type": "Feature", "properties": { "name": "Nairobi Radiology Clinic", "amenity_type": "clinic", "osm-type": "node", "latitude": -1.2954069, "longitude": 36.7979274 }, "geometry": { "type": "Point", "coordinates": [ 36.7979274, -1.2954069 ] } },
{ "type": "Feature", "properties": { "name": "hope clinic", "amenity_type": "clinic", "osm-type": "node", "latitude": -1.3147576, "longitude": 36.7763187 }, "geometry": { "type": "Point", "coordinates": [ 36.7763187, -1.3147576 ] } },
{ "type": "Feature", "properties": { "name": "vipawa medical clinic", "amenity_type": "clinic", "osm-type": "node", "latitude": -1.3114486, "longitude": 36.7850976 }, "geometry": { "type": "Point", "coordinates": [ 36.7850976, -1.3114486 ] } },
{ "type": "Feature", "properties": { "name": "mwangaza clinic", "amenity_type": "clinic", "osm-type": "node", "latitude": -1.3130387, "longitude": 36.7846389 }, "geometry": { "type": "Point", "coordinates": [ 36.7846389, -1.3130387 ] } },
{ "type": "Feature", "properties": { "name": "st. Beeja clinic", "amenity_type": "clinic", "osm-type": "node", "latitude": -1.3134302, "longitude": 36.7854302 }, "geometry": { "type": "Point", "coordinates": [ 36.7854302, -1.3134302 ] } },
{ "type": "Feature", "properties": { "name": "jadunda clinic", "amenity_type": "clinic", "osm-type": "node", "latitude": -1.3113896, "longitude": 36.7828714 }, "geometry": { "type": "Point", "coordinates": [ 36.7828714, -1.3113896 ] } },
{ "type": "Feature", "properties": { "name": "Rahisi clinic", "amenity_type": "clinic", "osm-type": "node", "latitude": -1.3097995, "longitude": 36.7861732 }, "geometry": { "type": "Point", "coordinates": [ 36.7861732, -1.3097995 ] } },
{ "type": "Feature", "properties": { "name": "merciline clinic", "amenity_type": "clinic", "osm-type": "node", "latitude": -1.3133096, "longitude": 36.7842312 }, "geometry": { "type": "Point", "coordinates": [ 36.7842312, -1.3133096 ] } },
{ "type": "Feature", "properties": { "name": "community clinic", "amenity_type": "clinic", "osm-type": "node", "latitude": -1.3157658, "longitude": 36.7859425 }, "geometry": { "type": "Point", "coordinates": [ 36.7859425, -1.3157658 ] } },
{ "type": "Feature", "properties": { "name": "Euraka clinic", "amenity_type": "clinic", "osm-type": "node", "latitude": -1.2923138, "longitude": 36.8198386 }, "geometry": { "type": "Point", "coordinates": [ 36.8198386, -1.2923138 ] } },
{ "type": "Feature", "properties": { "name": "rahisi clinic", "amenity_type": "clinic", "osm-type": "node", "latitude": -1.3098578, "longitude": 36.7861797 }, "geometry": { "type": "Point", "coordinates": [ 36.7861797, -1.3098578 ] } },
{ "type": "Feature", "properties": { "name": "mareba clinic", "amenity_type": "clinic", "osm-type": "node", "latitude": -1.3066507, "longitude": 36.7834948 }, "geometry": { "type": "Point", "coordinates": [ 36.7834948, -1.3066507 ] } },
{ "type": "Feature", "properties": { "name": "kisembo clinic", "amenity_type": "clinic", "osm-type": "node", "latitude": -1.3133218, "longitude": 36.7899871 }, "geometry": { "type": "Point", "coordinates": [ 36.7899871, -1.3133218 ] } },
{ "type": "Feature", "properties": { "name": "Christ the king clinic", "amenity_type": "clinic", "osm-type": "node", "latitude": -1.3105088, "longitude": 36.7947869 }, "geometry": { "type": "Point", "coordinates": [ 36.7947869, -1.3105088 ] } },
{ "type": "Feature", "properties": { "name": "marie stope clinic", "amenity_type": "clinic", "osm-type": "node", "latitude": -1.308054, "longitude": 36.7892044 }, "geometry": { "type": "Point", "coordinates": [ 36.7892044, -1.308054 ] } },
{ "type": "Feature", "properties": { "name": "Amanda chemistry", "amenity_type": "clinic", "osm-type": "node", "latitude": -1.3071235, "longitude": 36.7870801 }, "geometry": { "type": "Point", "coordinates": [ 36.7870801, -1.3071235 ] } },
{ "type": "Feature", "properties": { "name": "vimaclinic", "amenity_type": "clinic", "osm-type": "node", "latitude": -1.3148687, "longitude": 36.7920298 }, "geometry": { "type": "Point", "coordinates": [ 36.7920298, -1.3148687 ] } },
{ "type": "Feature", "properties": { "name": "Helfen Medical Centre", "amenity_type": "clinic", "osm-type": "node", "latitude": -1.2576741, "longitude": 36.7031732 }, "geometry": { "type": "Point", "coordinates": [ 36.7031732, -1.2576741 ] } },
{ "type": "Feature", "properties": { "name": "Huduma Medical Center", "amenity_type": "clinic", "osm-type": "node", "latitude": -1.2277845, "longitude": 36.9186669 }, "geometry": { "type": "Point", "coordinates": [ 36.9186669, -1.2277845 ] } },
{ "type": "Feature", "properties": { "name": "Dental Clinic", "amenity_type": "clinic", "osm-type": "node", "latitude": -1.2884377, "longitude": 36.9723318 }, "geometry": { "type": "Point", "coordinates": [ 36.9723318, -1.2884377 ] } },
{ "type": "Feature", "properties": { "name": "Pioneer Medical Clinic", "amenity_type": "clinic", "osm-type": "node", "latitude": -1.2882406, "longitude": 36.9731764 }, "geometry": { "type": "Point", "coordinates": [ 36.9731764, -1.2882406 ] } },
{ "type": "Feature", "properties": { "name": "Pema hospital", "amenity_type": "clinic", "osm-type": "node", "latitude": -1.2796749, "longitude": 36.9688728 }, "geometry": { "type": "Point", "coordinates": [ 36.9688728, -1.2796749 ] } },
{ "type": "Feature", "properties": { "name": "Digestive Health & Endoscopy Clinic", "amenity_type": "clinic", "osm-type": "node", "latitude": -1.3005712, "longitude": 36.7820366 }, "geometry": { "type": "Point", "coordinates": [ 36.7820366, -1.3005712 ] } },
{ "type": "Feature", "properties": { "name": "State House Clinic", "amenity_type": "clinic", "osm-type": "node", "latitude": -1.2784487, "longitude": 36.805034 }, "geometry": { "type": "Point", "coordinates": [ 36.805034, -1.2784487 ] } },
{ "type": "Feature", "properties": { "name": "Mlango kubwa", "amenity_type": "clinic", "osm-type": "node", "latitude": -1.268216, "longitude": 36.8438476 }, "geometry": { "type": "Point", "coordinates": [ 36.8438476, -1.268216 ] } },
{ "type": "Feature", "properties": { "name": "Pangani family Hospital", "amenity_type": "clinic", "osm-type": "node", "latitude": -1.2612977, "longitude": 36.8619073 }, "geometry": { "type": "Point", "coordinates": [ 36.8619073, -1.2612977 ] } },
{ "type": "Feature", "properties": { "name": "Glory Hospital", "amenity_type": "clinic", "osm-type": "node", "latitude": -1.265586, "longitude": 36.8456437 }, "geometry": { "type": "Point", "coordinates": [ 36.8456437, -1.265586 ] } },
{ "type": "Feature", "properties": { "name": "Krisvini Medical Clinic", "amenity_type": "clinic", "osm-type": "node", "latitude": -1.2644232, "longitude": 36.8507933 }, "geometry": { "type": "Point", "coordinates": [ 36.8507933, -1.2644232 ] } },
{ "type": "Feature", "properties": { "name": "Mama wairimu", "amenity_type": "clinic", "osm-type": "node", "latitude": -1.2655818, "longitude": 36.8502133 }, "geometry": { "type": "Point", "coordinates": [ 36.8502133, -1.2655818 ] } },
{ "type": "Feature", "properties": { "name": "Uzima White", "amenity_type": "clinic", "osm-type": "node", "latitude": -1.2614376, "longitude": 36.8619499 }, "geometry": { "type": "Point", "coordinates": [ 36.8619499, -1.2614376 ] } },
{ "type": "Feature", "properties": { "name": "Medverse Community Hospital", "amenity_type": "clinic", "osm-type": "node", "latitude": -1.2805878, "longitude": 36.9584378 }, "geometry": { "type": "Point", "coordinates": [ 36.9584378, -1.2805878 ] } },
{ "type": "Feature", "properties": { "name": "Star General Clinic Hospital", "amenity_type": "clinic", "osm-type": "node", "latitude": -1.2397513, "longitude": 36.8987525 }, "geometry": { "type": "Point", "coordinates": [ 36.8987525, -1.2397513 ] } },
{ "type": "Feature", "properties": { "name": "family clinic", "amenity_type": "clinic", "osm-type": "node", "latitude": -1.3118997, "longitude": 36.8643973 }, "geometry": { "type": "Point", "coordinates": [ 36.8643973, -1.3118997 ] } },
{ "type": "Feature", "properties": { "name": "mama kevin herbal clinic", "amenity_type": "clinic", "osm-type": "node", "latitude": -1.312459, "longitude": 36.8641513 }, "geometry": { "type": "Point", "coordinates": [ 36.8641513, -1.312459 ] } },
{ "type": "Feature", "properties": { "name": "airtel chemist", "amenity_type": "clinic", "osm-type": "node", "latitude": -1.3119773, "longitude": 36.8636869 }, "geometry": { "type": "Point", "coordinates": [ 36.8636869, -1.3119773 ] } },
{ "type": "Feature", "properties": { "name": "the shepherds medical center", "amenity_type": "clinic", "osm-type": "node", "latitude": -1.3120977, "longitude": 36.8635074 }, "geometry": { "type": "Point", "coordinates": [ 36.8635074, -1.3120977 ] } },
{ "type": "Feature", "properties": { "name": "pona medical clinic", "amenity_type": "clinic", "osm-type": "node", "latitude": -1.311416, "longitude": 36.8674112 }, "geometry": { "type": "Point", "coordinates": [ 36.8674112, -1.311416 ] } },
{ "type": "Feature", "properties": { "name": "afya ya jamii med clinic", "amenity_type": "clinic", "osm-type": "node", "latitude": -1.3048002, "longitude": 36.8851831 }, "geometry": { "type": "Point", "coordinates": [ 36.8851831, -1.3048002 ] } },
{ "type": "Feature", "properties": { "name": "access afya medical", "amenity_type": "clinic", "osm-type": "node", "latitude": -1.3093338, "longitude": 36.8784577 }, "geometry": { "type": "Point", "coordinates": [ 36.8784577, -1.3093338 ] } },
{ "type": "Feature", "properties": { "name": "riders medical center", "amenity_type": "clinic", "osm-type": "node", "latitude": -1.3098667, "longitude": 36.8757583 }, "geometry": { "type": "Point", "coordinates": [ 36.8757583, -1.3098667 ] } },
{ "type": "Feature", "properties": { "name": "st. andrews medical cllinic.", "amenity_type": "clinic", "osm-type": "node", "latitude": -1.3104135, "longitude": 36.8735577 }, "geometry": { "type": "Point", "coordinates": [ 36.8735577, -1.3104135 ] } },
{ "type": "Feature", "properties": { "name": "medilink centre", "amenity_type": "clinic", "osm-type": "node", "latitude": -1.3117193, "longitude": 36.8708023 }, "geometry": { "type": "Point", "coordinates": [ 36.8708023, -1.3117193 ] } },
{ "type": "Feature", "properties": { "name": "Comboni Health program", "amenity_type": "clinic", "osm-type": "node", "latitude": -1.2479038, "longitude": 36.8906956 }, "geometry": { "type": "Point", "coordinates": [ 36.8906956, -1.2479038 ] } },
{ "type": "Feature", "properties": { "name": "Amani Medical Clinic", "amenity_type": "clinic", "osm-type": "node", "latitude": -1.2563049, "longitude": 36.8860482 }, "geometry": { "type": "Point", "coordinates": [ 36.8860482, -1.2563049 ] } },
{ "type": "Feature", "properties": { "name": "Al Tawoon Wellness centre", "amenity_type": "clinic", "osm-type": "node", "latitude": -1.2517428, "longitude": 36.8909883 }, "geometry": { "type": "Point", "coordinates": [ 36.8909883, -1.2517428 ] } },
{ "type": "Feature", "properties": { "name": "Pentacare hospital", "amenity_type": "clinic", "osm-type": "node", "latitude": -1.310614, "longitude": 36.873479 }, "geometry": { "type": "Point", "coordinates": [ 36.873479, -1.310614 ] } },
{ "type": "Feature", "properties": { "name": "Lucin Medical Center", "amenity_type": "clinic", "osm-type": "node", "latitude": -1.2207537, "longitude": 36.9135378 }, "geometry": { "type": "Point", "coordinates": [ 36.9135378, -1.2207537 ] } },
{ "type": "Feature", "properties": { "name": "Equity Afia Medical Centre", "amenity_type": "clinic", "osm-type": "node", "latitude": -1.3735916, "longitude": 36.9336153 }, "geometry": { "type": "Point", "coordinates": [ 36.9336153, -1.3735916 ] } },
{ "type": "Feature", "properties": { "name": "Tabitha Medical Clinic", "amenity_type": "clinic", "osm-type": "way", "latitude": -1.3161319, "longitude": 36.7801097 }, "geometry": { "type": "Point", "coordinates": [ 36.7801097, -1.3161319 ] } },
{ "type": "Feature", "properties": { "name": "Park Road Nursing Home", "amenity_type": "clinic", "osm-type": "way", "latitude": -1.273269, "longitude": 36.8321573 }, "geometry": { "type": "Point", "coordinates": [ 36.8321573, -1.273269 ] } },
{ "type": "Feature", "properties": { "name": "medecins sans frontieres", "amenity_type": "clinic", "osm-type": "way", "latitude": -1.266102, "longitude": 36.8534674 }, "geometry": { "type": "Point", "coordinates": [ 36.8534674, -1.266102 ] } },
{ "type": "Feature", "properties": { "name": "Islamic Republic of Iran Medical Clinic", "amenity_type": "clinic", "osm-type": "way", "latitude": -1.298766, "longitude": 36.7646292 }, "geometry": { "type": "Point", "coordinates": [ 36.7646292, -1.298766 ] } },
{ "type": "Feature", "properties": { "name": "Technical University Dispensary", "amenity_type": "clinic", "osm-type": "way", "latitude": -1.2912969, "longitude": 36.8243089 }, "geometry": { "type": "Point", "coordinates": [ 36.8243089, -1.2912969 ] } },
{ "type": "Feature", "properties": { "name": "Mediheal Diagnostic & Fertility Centre", "amenity_type": "clinic", "osm-type": "way", "latitude": -1.2625501, "longitude": 36.8237161 }, "geometry": { "type": "Point", "coordinates": [ 36.8237161, -1.2625501 ] } },
{ "type": "Feature", "properties": { "name": "Unnamed Facility", "amenity_type": "clinic", "osm-type": "way", "latitude": -1.2600494, "longitude": 36.8449156 }, "geometry": { "type": "Point", "coordinates": [ 36.8449156, -1.2600494 ] } },
{ "type": "Feature", "properties": { "name": "Upendo Dispensary", "amenity_type": "clinic", "osm-type": "way", "latitude": -1.2633608, "longitude": 36.8584494 }, "geometry": { "type": "Point", "coordinates": [ 36.8584494, -1.2633608 ] } },
{ "type": "Feature", "properties": { "name": "St Merryl Medical Services", "amenity_type": "clinic", "osm-type": "way", "latitude": -1.2554385, "longitude": 36.7125871 }, "geometry": { "type": "Point", "coordinates": [ 36.7125871, -1.2554385 ] } }
]
}
